customer_city,customer_id,lat_x,lon_x,zip_code_prefix_x,customer,seller_id,order_id,delivery_speed,seller_city,lat_y,lon_y,zip_code_prefix_y,seller,seller_location,customer_location
abadia dos dourados,9e01f714a2b3b8962c222cf2b74c20dc,-18.47775160890748,-47.40631870552556,38540,74530,12b9676b00f60f3b700e83af21824c0e,50ba38c4dc467baab1ea2c8c7747934d,17.0,montenegro,-29.688238317970825,-51.4687297294334,95780.0,1025.0,POINT (-51.4687297294334 -29.688238317970825),POINT (-47.40631870552556 -18.47775160890748)
abelardo luz,0609f5889f00803311ba52e9219c3872,-26.567291358539716,-52.32770280683115,89830,43208,cbf09e831b0c11f6f23ffb51004db972,8346e642eb8d376b57cddc53b6118a3a,7.0,sbc/sp,-23.687601262936614,-46.56158565212812,9726.0,870.0,POINT (-46.56158565212812 -23.687601262936614),POINT (-52.32770280683115 -26.567291358539716)
abrantes,0165051ac7514aff1b132007d915622f,-12.828448370062683,-38.26224219433945,42840,29714,a1043bafd471dff536d0c462352beb48,a3f157a067efbb72090189af1f7b78b4,15.0,ilicinea,-20.940711526524826,-45.82719542395004,37175.0,2747.0,POINT (-45.82719542395004 -20.940711526524826),POINT (-38.26224219433945 -12.828448370062683)
afogados da ingazeira,2374bb1234352ce588b83dc14b59ea5f,-7.755593017854507,-37.590137523621614,56800,38311,3d871de0142ce09b7081e2b9d1733cb1,814449e266f5cbff53f6e336abd1dd5a,10.0,campo limpo paulista,-23.211861520675228,-46.76228778069986,13232.0,2346.0,POINT (-46.76228778069986 -23.211861520675228),POINT (-37.590137523621614 -7.755593017854507)
afranio,3a877e5eba37d36c050a3e5f11083e5f,-8.528732354498644,-41.02153204781979,56360,50094,1fe5540d7c1c37a595fefbacd5570d9e,9f81e8f6c74d99562869844aafbfe0d5,13.0,paraiba do sul,-22.165064136726443,-43.292566627183746,25850.0,418.0,POINT (-43.292566627183746 -22.165064136726443),POINT (-41.02153204781979 -8.528732354498644)
agua preta,d5611385e2e85a798c08942bdcedf49c,-8.7061366938173,-35.5172329639589,55550,92664,4aba391bc3b88717ce08eb11e44937b2,c693197525abfba60b35d3a99954f7a5,11.0,arraial d'ajuda (porto seguro),-16.381853461534703,-39.304253002730505,45816.0,875.0,POINT (-39.304253002730505 -16.381853461534703),POINT (-35.5172329639589 -8.7061366938173)
agua santa,235702411e5214f0e4a0761bf5ce9e99,-28.183372036296035,-52.03985047911124,99965,98651,001cca7ae9ae17fb1caed9dfb1094831,3363e330c754a732795f39079bb76d55,15.0,cariacica,-20.301260880441404,-40.394696907072586,29156.0,1110.0,POINT (-40.394696907072586 -20.301260880441404),POINT (-52.03985047911124 -28.183372036296035)
aguas mornas,078f0224b486abd1118e85fc9d4d3dc6,-27.700076237062717,-48.8354429033072,88150,12501,00fc707aaaad2d31347cf883cd2dfe10,1830ac545c2b9909d6c6e107924faa80,16.0,maringa,-23.417734292616718,-51.93149252646482,87025.0,1955.0,POINT (-51.93149252646482 -23.417734292616718),POINT (-48.8354429033072 -27.700076237062717)
aguas vermelhas,070ae6a687b800200c1f7dd6a2671c75,-15.657727860095669,-41.48047338651928,39990,73509,4869f7a5dfa277a7dca6462dcf3b52b2,356108ac93685d12f65fe827e25bb138,11.0,guariba,-21.36347334469748,-48.2295879769369,14840.0,2618.0,POINT (-48.2295879769369 -21.36347334469748),POINT (-41.48047338651928 -15.657727860095669)
ajuricaba,2803c057d3a734c257e48b068d04722a,-28.23767494431188,-53.764289647979005,98750,47283,5cf13accae3222c70a9cac40818ae839,f22b5d7d572e174ee9e14f0e04c7962c,9.0,patos de minas,-18.585641548215296,-46.522755602074014,38700.0,2442.0,POINT (-46.522755602074014 -18.585641548215296),POINT (-53.764289647979005 -28.23767494431188)
alagoinhas,034c3cb26461c58520139e4efb33ed90,-12.137272036684607,-38.419683906140584,48030,3025,1554a68530182680ad5c8b042c3ab563,01d0cbd002be92b5a970cb8f233349c2,17.0,monte siao,-22.43061273369082,-46.57334084810494,37580.0,524.0,POINT (-46.57334084810494 -22.43061273369082),POINT (-38.419683906140584 -12.137272036684607)
alambari,48809a65c8830c54c2316d6a15e6b8da,-23.561571066058445,-47.88510054852835,18220,83133,01fdefa7697d26ad920e9e0346d4bd1b,893fff1e0e8a0597923ff86966aac6d1,4.0,londrina,-23.318378591672754,-51.16255151516641,86050.0,1194.0,POINT (-51.16255151516641 -23.318378591672754),POINT (-47.88510054852835 -23.561571066058445)
alcobaca,45742477c326bf68df61971f1b7792c3,-17.51014442862304,-39.23413767321622,45910,46193,17306570e772e7718c92a562d33f5f1d,b8f6c1f24bcd15ca5eb715c85b0abc29,23.0,bariri,-22.074148535297056,-48.74036120641809,17250.0,2643.0,POINT (-48.74036120641809 -22.074148535297056),POINT (-39.23413767321622 -17.51014442862304)
alegre,22920e925fcbdd68ef776651f8c53cc3,-20.761299711200177,-41.534755315079884,29500,3779,a1043bafd471dff536d0c462352beb48,249e44947c66e3b0e46b3ba2f38d846d,7.0,ilicinea,-20.940711526524826,-45.82719542395004,37175.0,2747.0,POINT (-45.82719542395004 -20.940711526524826),POINT (-41.534755315079884 -20.761299711200177)
alfredo marcondes,9722587eb1c172a4072889c0c06654f6,-21.9544225372067,-51.41597855181986,19180,19597,a1043bafd471dff536d0c462352beb48,f2a2bd7aa9e2c2b51ff415ce646587ae,15.0,ilicinea,-20.940711526524826,-45.82719542395004,37175.0,2747.0,POINT (-45.82719542395004 -20.940711526524826),POINT (-51.41597855181986 -21.9544225372067)
alhandra,77e0e2987754751f359ba128d6cfa606,-7.433968779567003,-34.910447698646784,58320,46269,712e6ed8aa4aa1fa65dab41fed5737e4,b1bbf1459cd5cbb3c23aad7656250ced,26.0,videira,-27.004522453378566,-51.152808530844105,89560.0,2227.0,POINT (-51.152808530844105 -27.004522453378566),POINT (-34.910447698646784 -7.433968779567003)
alpestre,95462f6d1cb366ce19620fa03dfe0cc4,-27.250270356865872,-53.03589689018164,98480,90644,01fdefa7697d26ad920e9e0346d4bd1b,a1a26fd368e8d98c468ecd201ea55af8,12.0,londrina,-23.318378591672754,-51.16255151516641,86050.0,1194.0,POINT (-51.16255151516641 -23.318378591672754),POINT (-53.03589689018164 -27.250270356865872)
alto alegre,6778ad70beba8e6b7e8f7fef2a2299de,-24.858814717646492,-52.25528737612796,99430,73604,259f7b5e6e482c230e5bfaa670b6bb8f,61f73b79dabd51f9b838574822c650f9,17.0,poa,-23.521983064965852,-46.341077825089386,8550.0,471.0,POINT (-46.341077825089386 -23.521983064965852),POINT (-52.25528737612796 -24.858814717646492)
alto alegre do maranhao,bf84e7f1cf36cd90c6f27186dc787abd,-4.214134911794691,-44.44951278413494,65413,6517,0df3984f9dfb3d49ac6366acbd3bbb85,a02c551c16a4f354b94361e1c6e0e283,8.0,betim,-19.947349446576954,-44.17501478946979,32604.0,1415.0,POINT (-44.17501478946979 -19.947349446576954),POINT (-44.44951278413494 -4.214134911794691)
alto alegre do pindare,14afd6611044699b2f2f2afe32af6cc5,-3.701581302872117,-45.8570810629906,65398,54601,12b9676b00f60f3b700e83af21824c0e,5288a5c8ebb19306a1564b85ddb068f0,9.0,montenegro,-29.688238317970825,-51.4687297294334,95780.0,1025.0,POINT (-51.4687297294334 -29.688238317970825),POINT (-45.8570810629906 -3.701581302872117)
alto garcas,573b52edbe089b1124b9ab66535e07d6,-16.945662758484527,-53.531709573548625,78770,22615,12b9676b00f60f3b700e83af21824c0e,5b8ee358a856b984447f8fab66c798cc,20.0,montenegro,-29.688238317970825,-51.4687297294334,95780.0,1025.0,POINT (-51.4687297294334 -29.688238317970825),POINT (-53.531709573548625 -16.945662758484527)
alto rio doce,03e6182153ba8bbdff8a0236ee161c8f,-21.023139419639094,-43.41272948337939,36260,17576,37515688008a7a40ac93e3b2e4ab203f,c99ca23474e04e001665cd9439b59dca,11.0,dracena,-21.486683807888387,-51.53395507459642,17900.0,2622.0,POINT (-51.53395507459642 -21.486683807888387),POINT (-43.41272948337939 -21.023139419639094)
alto rio novo,5692fbc657396192e5fc13d68909c77a,-19.058137575204128,-41.01880028801369,29760,76746,3d871de0142ce09b7081e2b9d1733cb1,2f8691a66c1a37780996a2479e8bea62,12.0,campo limpo paulista,-23.211861520675228,-46.76228778069986,13232.0,2346.0,POINT (-46.76228778069986 -23.211861520675228),POINT (-41.01880028801369 -19.058137575204128)
america dourada,48f8c4f0545adf1581cc6c077b7b88f3,-11.45534706517941,-41.45792194795551,44910,63078,1f9ab4708f3056ede07124aad39a2554,c91097d5f017e8117c4930db4bc51c66,44.0,tupa,-21.93584016874602,-50.51329887609122,17602.0,36.0,POINT (-50.51329887609122 -21.93584016874602),POINT (-41.45792194795551 -11.45534706517941)
ametista do sul,6e83cb3151777d36475c5b2dc6790e11,-27.366618487581068,-53.17761054673636,98465,3794,12b9676b00f60f3b700e83af21824c0e,9e929678356c7476ba7a7f94d9715062,4.0,montenegro,-29.688238317970825,-51.4687297294334,95780.0,1025.0,POINT (-51.4687297294334 -29.688238317970825),POINT (-53.17761054673636 -27.366618487581068)
andarai,3cea18522d4d87f0397edbbbc5ce28e0,-12.79378975081371,-41.29465342303002,46830,38719,d93919c944be9cff128f6c9cb899eacb,3d0e84aa6695f156f958a00ca2a2745b,16.0,mombuca,-20.56936647541443,-46.02311914850127,13375.0,481.0,POINT (-46.02311914850127 -20.56936647541443),POINT (-41.29465342303002 -12.79378975081371)
andira,27c6db37b1f4e91aa4a4c1644b904799,-23.048557365215235,-50.23049478428884,86380,77822,01cf7e3d21494c41fb86034f2e714fa1,d0714b92348bdff5af0cabf84ae6c2c0,8.0,francisco beltrao,-26.063301674754463,-53.05526536488769,85603.0,423.0,POINT (-53.05526536488769 -26.063301674754463),POINT (-50.23049478428884 -23.048557365215235)
andrelandia,6375f48d885428bd1c84628e80583a8f,-21.739642931038333,-44.30976445950927,37300,37306,5a93f3ab0ef4c84ed5e1b5dbf23978bc,c9078b2ce6167917416ddd9b7c40b5f5,16.0,monteiro lobato,-22.95371488210672,-45.839550230520295,12250.0,413.0,POINT (-45.839550230520295 -22.95371488210672),POINT (-44.30976445950927 -21.739642931038333)
andrelandia,6375f48d885428bd1c84628e80583a8f,-21.739642931038333,-44.30976445950927,37300,37306,5a93f3ab0ef4c84ed5e1b5dbf23978bc,c9078b2ce6167917416ddd9b7c40b5f5,16.0,monteiro lobato,-22.95371488210672,-45.839550230520295,12250.0,413.0,POINT (-45.839550230520295 -22.95371488210672),POINT (-44.30976445950927 -21.739642931038333)
andrelandia,6375f48d885428bd1c84628e80583a8f,-21.739642931038333,-44.30976445950927,37300,37306,5a93f3ab0ef4c84ed5e1b5dbf23978bc,c9078b2ce6167917416ddd9b7c40b5f5,16.0,monteiro lobato,-22.95371488210672,-45.839550230520295,12250.0,413.0,POINT (-45.839550230520295 -22.95371488210672),POINT (-44.30976445950927 -21.739642931038333)
andrelandia,6375f48d885428bd1c84628e80583a8f,-21.739642931038333,-44.30976445950927,37300,37306,5a93f3ab0ef4c84ed5e1b5dbf23978bc,c9078b2ce6167917416ddd9b7c40b5f5,16.0,monteiro lobato,-22.95371488210672,-45.839550230520295,12250.0,413.0,POINT (-45.839550230520295 -22.95371488210672),POINT (-44.30976445950927 -21.739642931038333)
andrelandia,6375f48d885428bd1c84628e80583a8f,-21.739642931038333,-44.30976445950927,37300,37306,5a93f3ab0ef4c84ed5e1b5dbf23978bc,c9078b2ce6167917416ddd9b7c40b5f5,16.0,monteiro lobato,-22.95371488210672,-45.839550230520295,12250.0,413.0,POINT (-45.839550230520295 -22.95371488210672),POINT (-44.30976445950927 -21.739642931038333)
andrelandia,6375f48d885428bd1c84628e80583a8f,-21.739642931038333,-44.30976445950927,37300,37306,5a93f3ab0ef4c84ed5e1b5dbf23978bc,c9078b2ce6167917416ddd9b7c40b5f5,16.0,monteiro lobato,-22.95371488210672,-45.839550230520295,12250.0,413.0,POINT (-45.839550230520295 -22.95371488210672),POINT (-44.30976445950927 -21.739642931038333)
andrelandia,6375f48d885428bd1c84628e80583a8f,-21.739642931038333,-44.30976445950927,37300,37306,5a93f3ab0ef4c84ed5e1b5dbf23978bc,c9078b2ce6167917416ddd9b7c40b5f5,16.0,monteiro lobato,-22.95371488210672,-45.839550230520295,12250.0,413.0,POINT (-45.839550230520295 -22.95371488210672),POINT (-44.30976445950927 -21.739642931038333)
andrelandia,6375f48d885428bd1c84628e80583a8f,-21.739642931038333,-44.30976445950927,37300,37306,5a93f3ab0ef4c84ed5e1b5dbf23978bc,c9078b2ce6167917416ddd9b7c40b5f5,16.0,monteiro lobato,-22.95371488210672,-45.839550230520295,12250.0,413.0,POINT (-45.839550230520295 -22.95371488210672),POINT (-44.30976445950927 -21.739642931038333)
andrelandia,6375f48d885428bd1c84628e80583a8f,-21.739642931038333,-44.30976445950927,37300,37306,5a93f3ab0ef4c84ed5e1b5dbf23978bc,c9078b2ce6167917416ddd9b7c40b5f5,16.0,monteiro lobato,-22.95371488210672,-45.839550230520295,12250.0,413.0,POINT (-45.839550230520295 -22.95371488210672),POINT (-44.30976445950927 -21.739642931038333)
andrelandia,6375f48d885428bd1c84628e80583a8f,-21.739642931038333,-44.30976445950927,37300,37306,5a93f3ab0ef4c84ed5e1b5dbf23978bc,c9078b2ce6167917416ddd9b7c40b5f5,16.0,monteiro lobato,-22.95371488210672,-45.839550230520295,12250.0,413.0,POINT (-45.839550230520295 -22.95371488210672),POINT (-44.30976445950927 -21.739642931038333)
andrelandia,6375f48d885428bd1c84628e80583a8f,-21.739642931038333,-44.30976445950927,37300,37306,5a93f3ab0ef4c84ed5e1b5dbf23978bc,c9078b2ce6167917416ddd9b7c40b5f5,16.0,monteiro lobato,-22.95371488210672,-45.839550230520295,12250.0,413.0,POINT (-45.839550230520295 -22.95371488210672),POINT (-44.30976445950927 -21.739642931038333)
andrelandia,6375f48d885428bd1c84628e80583a8f,-21.739642931038333,-44.30976445950927,37300,37306,5a93f3ab0ef4c84ed5e1b5dbf23978bc,c9078b2ce6167917416ddd9b7c40b5f5,16.0,monteiro lobato,-22.95371488210672,-45.839550230520295,12250.0,413.0,POINT (-45.839550230520295 -22.95371488210672),POINT (-44.30976445950927 -21.739642931038333)
andrelandia,6375f48d885428bd1c84628e80583a8f,-21.739642931038333,-44.30976445950927,37300,37306,5a93f3ab0ef4c84ed5e1b5dbf23978bc,c9078b2ce6167917416ddd9b7c40b5f5,16.0,monteiro lobato,-22.95371488210672,-45.839550230520295,12250.0,413.0,POINT (-45.839550230520295 -22.95371488210672),POINT (-44.30976445950927 -21.739642931038333)
andrelandia,6375f48d885428bd1c84628e80583a8f,-21.739642931038333,-44.30976445950927,37300,37306,5a93f3ab0ef4c84ed5e1b5dbf23978bc,c9078b2ce6167917416ddd9b7c40b5f5,16.0,monteiro lobato,-22.95371488210672,-45.839550230520295,12250.0,413.0,POINT (-45.839550230520295 -22.95371488210672),POINT (-44.30976445950927 -21.739642931038333)
andrelandia,6375f48d885428bd1c84628e80583a8f,-21.739642931038333,-44.30976445950927,37300,37306,5a93f3ab0ef4c84ed5e1b5dbf23978bc,c9078b2ce6167917416ddd9b7c40b5f5,16.0,monteiro lobato,-22.95371488210672,-45.839550230520295,12250.0,413.0,POINT (-45.839550230520295 -22.95371488210672),POINT (-44.30976445950927 -21.739642931038333)
andrelandia,6375f48d885428bd1c84628e80583a8f,-21.739642931038333,-44.30976445950927,37300,37306,5a93f3ab0ef4c84ed5e1b5dbf23978bc,c9078b2ce6167917416ddd9b7c40b5f5,16.0,monteiro lobato,-22.95371488210672,-45.839550230520295,12250.0,413.0,POINT (-45.839550230520295 -22.95371488210672),POINT (-44.30976445950927 -21.739642931038333)
andrelandia,6375f48d885428bd1c84628e80583a8f,-21.739642931038333,-44.30976445950927,37300,37306,5a93f3ab0ef4c84ed5e1b5dbf23978bc,c9078b2ce6167917416ddd9b7c40b5f5,16.0,monteiro lobato,-22.95371488210672,-45.839550230520295,12250.0,413.0,POINT (-45.839550230520295 -22.95371488210672),POINT (-44.30976445950927 -21.739642931038333)
andrelandia,6375f48d885428bd1c84628e80583a8f,-21.739642931038333,-44.30976445950927,37300,37306,5a93f3ab0ef4c84ed5e1b5dbf23978bc,c9078b2ce6167917416ddd9b7c40b5f5,16.0,monteiro lobato,-22.95371488210672,-45.839550230520295,12250.0,413.0,POINT (-45.839550230520295 -22.95371488210672),POINT (-44.30976445950927 -21.739642931038333)
andrelandia,6375f48d885428bd1c84628e80583a8f,-21.739642931038333,-44.30976445950927,37300,37306,5a93f3ab0ef4c84ed5e1b5dbf23978bc,c9078b2ce6167917416ddd9b7c40b5f5,16.0,monteiro lobato,-22.95371488210672,-45.839550230520295,12250.0,413.0,POINT (-45.839550230520295 -22.95371488210672),POINT (-44.30976445950927 -21.739642931038333)
andrelandia,6375f48d885428bd1c84628e80583a8f,-21.739642931038333,-44.30976445950927,37300,37306,5a93f3ab0ef4c84ed5e1b5dbf23978bc,c9078b2ce6167917416ddd9b7c40b5f5,16.0,monteiro lobato,-22.95371488210672,-45.839550230520295,12250.0,413.0,POINT (-45.839550230520295 -22.95371488210672),POINT (-44.30976445950927 -21.739642931038333)
andrelandia,6375f48d885428bd1c84628e80583a8f,-21.739642931038333,-44.30976445950927,37300,37306,5a93f3ab0ef4c84ed5e1b5dbf23978bc,c9078b2ce6167917416ddd9b7c40b5f5,16.0,monteiro lobato,-22.95371488210672,-45.839550230520295,12250.0,413.0,POINT (-45.839550230520295 -22.95371488210672),POINT (-44.30976445950927 -21.739642931038333)
andrelandia,6375f48d885428bd1c84628e80583a8f,-21.739642931038333,-44.30976445950927,37300,37306,5a93f3ab0ef4c84ed5e1b5dbf23978bc,c9078b2ce6167917416ddd9b7c40b5f5,16.0,monteiro lobato,-22.95371488210672,-45.839550230520295,12250.0,413.0,POINT (-45.839550230520295 -22.95371488210672),POINT (-44.30976445950927 -21.739642931038333)
andrelandia,6375f48d885428bd1c84628e80583a8f,-21.739642931038333,-44.30976445950927,37300,37306,5a93f3ab0ef4c84ed5e1b5dbf23978bc,c9078b2ce6167917416ddd9b7c40b5f5,16.0,monteiro lobato,-22.95371488210672,-45.839550230520295,12250.0,413.0,POINT (-45.839550230520295 -22.95371488210672),POINT (-44.30976445950927 -21.739642931038333)
andrelandia,6375f48d885428bd1c84628e80583a8f,-21.739642931038333,-44.30976445950927,37300,37306,5a93f3ab0ef4c84ed5e1b5dbf23978bc,c9078b2ce6167917416ddd9b7c40b5f5,16.0,monteiro lobato,-22.95371488210672,-45.839550230520295,12250.0,413.0,POINT (-45.839550230520295 -22.95371488210672),POINT (-44.30976445950927 -21.739642931038333)
andrelandia,6375f48d885428bd1c84628e80583a8f,-21.739642931038333,-44.30976445950927,37300,37306,5a93f3ab0ef4c84ed5e1b5dbf23978bc,c9078b2ce6167917416ddd9b7c40b5f5,16.0,monteiro lobato,-22.95371488210672,-45.839550230520295,12250.0,413.0,POINT (-45.839550230520295 -22.95371488210672),POINT (-44.30976445950927 -21.739642931038333)
andrelandia,6375f48d885428bd1c84628e80583a8f,-21.739642931038333,-44.30976445950927,37300,37306,5a93f3ab0ef4c84ed5e1b5dbf23978bc,c9078b2ce6167917416ddd9b7c40b5f5,16.0,monteiro lobato,-22.95371488210672,-45.839550230520295,12250.0,413.0,POINT (-45.839550230520295 -22.95371488210672),POINT (-44.30976445950927 -21.739642931038333)
andrelandia,6375f48d885428bd1c84628e80583a8f,-21.739642931038333,-44.30976445950927,37300,37306,5a93f3ab0ef4c84ed5e1b5dbf23978bc,c9078b2ce6167917416ddd9b7c40b5f5,16.0,monteiro lobato,-22.95371488210672,-45.839550230520295,12250.0,413.0,POINT (-45.839550230520295 -22.95371488210672),POINT (-44.30976445950927 -21.739642931038333)
andrequice,0f3c4578cc4133c0e29cf96d0709d28d,-18.25622999999996,-45.06661999999994,39207,30127,4869f7a5dfa277a7dca6462dcf3b52b2,5edc8e0c1ae7714730b6be87e97da686,18.0,guariba,-21.36347334469748,-48.2295879769369,14840.0,2618.0,POINT (-48.2295879769369 -21.36347334469748),POINT (-45.06661999999994 -18.25622999999996)
anguera,075b39e18f6c41df500a6ae613a735da,-12.150150399595153,-39.24608673614469,44670,80896,001cca7ae9ae17fb1caed9dfb1094831,99a50db34d17b1f845a8ea04de3e747d,8.0,cariacica,-20.301260880441404,-40.394696907072586,29156.0,1110.0,POINT (-40.394696907072586 -20.301260880441404),POINT (-39.24608673614469 -12.150150399595153)
anita garibaldi,043d7293671e5f243dd648d9e5d1f396,-27.6870849887108,-51.128215610104334,88590,45825,06a2c3af7b3aee5d69171b0e14f0ee87,dac5565e9e4cc5f3bd66470ed608c95c,12.0,sao luis,-2.503157606634558,-44.24938912079653,65072.0,1931.0,POINT (-44.24938912079653 -2.503157606634558),POINT (-51.128215610104334 -27.6870849887108)
antonina,3ba36f79e706c3402e5959eb12a8d661,-25.43466401233266,-48.7129743800851,83370,8079,01fdefa7697d26ad920e9e0346d4bd1b,64bfc8cd9379c2da1d2abd37c2adf65a,4.0,londrina,-23.318378591672754,-51.16255151516641,86050.0,1194.0,POINT (-51.16255151516641 -23.318378591672754),POINT (-48.7129743800851 -25.43466401233266)
antonio goncalves,b2c9e4e33013d7ebd1fe68e94efc16d7,-10.572356542799392,-40.275946409932025,44780,50295,0ea22c1cfbdc755f86b9b54b39c16043,f3e92f44e615fe19fd17a8c517224040,6.0,sete lagoas,-19.458191844684535,-44.24378281508432,35700.0,2216.0,POINT (-44.24378281508432 -19.458191844684535),POINT (-40.275946409932025 -10.572356542799392)
antonio prado de minas,62c48c7669b205d2b76a4b0cf96f7869,-21.016353231944873,-42.1144024694272,36850,27805,3d871de0142ce09b7081e2b9d1733cb1,d59576da0f17d86f09c7bd7dba50cf56,11.0,campo limpo paulista,-23.211861520675228,-46.76228778069986,13232.0,2346.0,POINT (-46.76228778069986 -23.211861520675228),POINT (-42.1144024694272 -21.016353231944873)
aparecida d'oeste,615186aa8a5e60ec87fa86010f582551,-20.453714282706738,-50.88294720407824,15735,23409,37515688008a7a40ac93e3b2e4ab203f,05d7aaa733ad65477075a3b5bf0f1017,5.0,dracena,-21.486683807888387,-51.53395507459642,17900.0,2622.0,POINT (-51.53395507459642 -21.486683807888387),POINT (-50.88294720407824 -20.453714282706738)
apora,b9d6a058e30a927c653a4d74412921ab,-13.4688355351923,-39.240259895855324,48355,74928,392e0502231ae2f8b29994ef6398cd77,de969b697705a8e3239d2f760c644c8a,43.0,cerqueira cesar,-23.03401382196383,-49.16277608958894,18760.0,1637.0,POINT (-49.16277608958894 -23.03401382196383),POINT (-39.240259895855324 -13.4688355351923)
apore,88ddedb9f546eb4ac5ab7e2ceceb8cfb,-18.962628411703154,-51.92694163039694,75825,5349,d25aa0aaacb370e912f8cf6efeba38b3,d4863946c55e209d189f5ee4e420bc9c,8.0,massaranduba,-26.60877921690227,-49.000830281288955,89108.0,2547.0,POINT (-49.000830281288955 -26.60877921690227),POINT (-51.92694163039694 -18.962628411703154)
apuiares,1d337e14df05fcfbae4c24fdbe93c9ba,-3.9469769287258267,-39.43159708945027,62630,47859,c3867b4666c7d76867627c2f7fb22e21,62feb97e08fa0615b190edb7e35e6f2a,24.0,guara,-20.432067568936827,-47.82429415688505,14580.0,1303.0,POINT (-47.82429415688505 -20.432067568936827),POINT (-39.43159708945027 -3.9469769287258267)
aquidaba,302b06db224fdf184b7815e96b72d9bc,-10.284582479280342,-37.019314628867455,49790,8687,3d871de0142ce09b7081e2b9d1733cb1,300acffc653419f09eea9de45afa0460,23.0,campo limpo paulista,-23.211861520675228,-46.76228778069986,13232.0,2346.0,POINT (-46.76228778069986 -23.211861520675228),POINT (-37.019314628867455 -10.284582479280342)
aracuai,15de0ec010b2ebd460855dfffeaa9845,-16.88745420490822,-42.094797379213716,39600,99181,1554a68530182680ad5c8b042c3ab563,0ee55c31a39d19fd857c0c8a80b2001f,18.0,monte siao,-22.43061273369082,-46.57334084810494,37580.0,524.0,POINT (-46.57334084810494 -22.43061273369082),POINT (-42.094797379213716 -16.88745420490822)
aragoiania,d2381384b32c3ea2127ff775858a3fea,-16.9108367677532,-49.44976584906477,75360,14253,4869f7a5dfa277a7dca6462dcf3b52b2,2f2bc2963a401290d92ba5b49f52f98f,15.0,guariba,-21.36347334469748,-48.2295879769369,14840.0,2618.0,POINT (-48.2295879769369 -21.36347334469748),POINT (-49.44976584906477 -16.9108367677532)
araguana,4dbd23fc431225ba2ef01b343523afe6,-2.9505096665532773,-45.66542619168681,65368,84536,a1043bafd471dff536d0c462352beb48,a9f3eefeba2b707e39dfc81dea76cb3a,15.0,ilicinea,-20.940711526524826,-45.82719542395004,37175.0,2747.0,POINT (-45.82719542395004 -20.940711526524826),POINT (-45.66542619168681 -2.9505096665532773)
araguatins,22b1e52ebdb7c825e37f73f392a33f95,-5.650552655953402,-48.1207008125323,77950,49208,4677a5437afda5fa7140b927b07be1cc,2542b194855edd1820173c2f2cf22e9c,15.0,japira,-23.812156076337978,-50.14033915045725,84920.0,719.0,POINT (-50.14033915045725 -23.812156076337978),POINT (-48.1207008125323 -5.650552655953402)
arandu,33b7695371b6758680afe0f96bc53d40,-23.13632139681524,-49.05416446679174,18710,78442,6b89abe95848c850399130d149a39b63,7470539f5035ecb8d54ba3376ba09487,8.0,piracanjuba,-17.303261316453252,-49.02591416605261,75640.0,341.0,POINT (-49.02591416605261 -17.303261316453252),POINT (-49.05416446679174 -23.13632139681524)
araputanga,030f8728859c2cfa3a4ec60388f43f16,-15.469617545229632,-58.347526914509444,78260,93782,96804ea39d96eb908e7c3afdb671bb9e,3ce61878d5eed0865d51e364fdd01ac2,15.0,ibia,-19.492679995904062,-46.54748864208533,38950.0,2445.0,POINT (-46.54748864208533 -19.492679995904062),POINT (-58.347526914509444 -15.469617545229632)
arara,1e7f26bfc1b72023a4e9b1800f281912,-6.8277176355033395,-35.76039334973399,58396,42377,0c8380b62e38e8a1e6adbeba7eb9688c,ffcbf9b4459704e9185c5c630d11b69c,12.0,tres coracoes,-21.693233185375103,-45.259366066052195,37410.0,116.0,POINT (-45.259366066052195 -21.693233185375103),POINT (-35.76039334973399 -6.8277176355033395)
ararangua,06db786002c0a85b36bdaca70b9fb4fe,-28.94240947736542,-49.48696299629801,88901,39739,3d871de0142ce09b7081e2b9d1733cb1,7e72165c5aea9996c625cfe62c8e1500,15.0,campo limpo paulista,-23.211861520675228,-46.76228778069986,13232.0,2346.0,POINT (-46.76228778069986 -23.211861520675228),POINT (-49.48696299629801 -28.94240947736542)
arceburgo,1f05354f6eaada5453b292bee372b797,-21.364023098913517,-46.93974204707032,37820,68953,57e632711dec9ec14ca7546769483e7e,310436570f7bf5ca58ec0500d633aea8,14.0,navegantes,-26.875243402471057,-48.6485641112122,88372.0,2694.0,POINT (-48.6485641112122 -26.875243402471057),POINT (-46.93974204707032 -21.364023098913517)
areia branca,062e9e44f1ded5f24b2c5839423d8446,-4.9561680843820906,-37.12781857615183,59655,67873,55a5b51f93f2b70ea513f5a047b0262a,4cf7e2d60f3f4ed58f0e1ee3a78c6e81,7.0,sao joao del rei,-21.128990534877282,-44.256339231497066,36301.0,659.0,POINT (-44.256339231497066 -21.128990534877282),POINT (-37.12781857615183 -4.9561680843820906)
areial,18fe01502f6161167cc115274c79bdc4,-7.048617955582523,-35.92421174107332,58140,30807,4869f7a5dfa277a7dca6462dcf3b52b2,1e4e642a89cc3c4bdbc8b9ac6299616a,32.0,guariba,-21.36347334469748,-48.2295879769369,14840.0,2618.0,POINT (-48.2295879769369 -21.36347334469748),POINT (-35.92421174107332 -7.048617955582523)
armacao dos buzios,10d2967d139449709e9f095b22b0f1d0,-22.76601561892179,-41.90626320952096,28950,35463,4869f7a5dfa277a7dca6462dcf3b52b2,e5535466d23681cc97013097a0644150,37.0,guariba,-21.36347334469748,-48.2295879769369,14840.0,2618.0,POINT (-48.2295879769369 -21.36347334469748),POINT (-41.90626320952096 -22.76601561892179)
arroio dos ratos,147f29ede8714f69f9c35d43b6eb4bad,-30.090092677814035,-51.73159434668711,96740,17770,c731d18cea9bf687ffee82a241c25b11,4b6661abf2da1932d74ee64f19a5ca41,3.0,concordia,-27.219961988392168,-52.02310086372463,89701.0,345.0,POINT (-52.02310086372463 -27.219961988392168),POINT (-51.73159434668711 -30.090092677814035)
arroio trinta,15e434f0b851bcf791f079859e01ce9f,-26.929579278430023,-51.33450086809512,89590,21007,1c68394e931a64f90ea236c5ea590300,b0328b109f45385c8736506194da39a0,12.0,sarandi,-23.43821696725313,-51.86751368613114,87114.0,1540.0,POINT (-51.86751368613114 -23.43821696725313),POINT (-51.33450086809512 -26.929579278430023)
aruja,005c36bfaa8710aaf61e4b1712ccd658,-23.398893524823198,-46.321239397775344,7401,46204,c3867b4666c7d76867627c2f7fb22e21,e9806eb26422c1a8b79d49a2c74e6f20,4.0,guara,-20.432067568936827,-47.82429415688505,14580.0,1303.0,POINT (-47.82429415688505 -20.432067568936827),POINT (-46.321239397775344 -23.398893524823198)
assis,0385c03f2b10a0a50ee72d8e3649a4b3,-22.65794578158895,-50.41563844374448,19800,77604,fa1a9dec3a9940c072684a46728bf1fc,fd9b8ed51e5ffedf7a56bea36cc5b6f9,15.0,icara,-28.71565981519538,-49.299383155192295,88820.0,436.0,POINT (-49.299383155192295 -28.71565981519538),POINT (-50.41563844374448 -22.65794578158895)
aurilandia,647b9b127ae2e74aec386da8e8d9018a,-16.680314629621517,-50.46548871939164,76120,23223,06a2c3af7b3aee5d69171b0e14f0ee87,0cd74b0dbfef5f1f8dbdcb3128f0dc51,15.0,sao luis,-2.503157606634558,-44.24938912079653,65072.0,1931.0,POINT (-44.24938912079653 -2.503157606634558),POINT (-50.46548871939164 -16.680314629621517)
avanhandava,2c9bda7cfb72f6946d6ba588a60c4039,-21.460683894370884,-49.94729114113036,16360,58411,17a053fcb14bd219540cbde0df490be0,6efe4ff2544602e95707b5e756e74712,6.0,mogi guacu,-22.364708033922323,-46.94064322343448,13843.0,1648.0,POINT (-46.94064322343448 -22.364708033922323),POINT (-49.94729114113036 -21.460683894370884)
baldim,258e7fc07b15e9471951747d685ac3be,-19.36780513170426,-43.961128987125576,35732,64375,014c0679dd340a0e338872e7ec85666a,63c6b78c7aceade884a5f08177c04e57,6.0,timoteo,-19.54590813439508,-42.64340834205976,35180.0,3006.0,POINT (-42.64340834205976 -19.54590813439508),POINT (-43.961128987125576 -19.36780513170426)
balneario arroio do silva,1a6f1dbfd20aece653f3adb896353111,-28.98644794358222,-49.417389233751386,88914,87484,822166ed1e47908f7cfb49946d03c726,dda50b827d23598558e8d9df7a56c3e7,16.0,tres rios,-22.117564596771704,-43.21305293285041,25803.0,1505.0,POINT (-43.21305293285041 -22.117564596771704),POINT (-49.417389233751386 -28.98644794358222)
bandeira do sul,9aca0bfc952e0fadb24258a836aa6815,-21.730195611584474,-46.386204583056596,37740,91305,fa1a9dec3a9940c072684a46728bf1fc,1a7eac11fedf646a6ee3c3136458da69,13.0,icara,-28.71565981519538,-49.299383155192295,88820.0,436.0,POINT (-49.299383155192295 -28.71565981519538),POINT (-46.386204583056596 -21.730195611584474)
barra da estiva,3d1926af745beb43e9b18338507cea0d,-13.62722007037801,-41.32746747588222,46650,34118,710e3548e02bc1d2831dfc4f1b5b14d4,18d4a0c2996047bfa18e3f637f4ad763,14.0,rolandia,-23.314113368818184,-51.3728448919054,86600.0,1882.0,POINT (-51.3728448919054 -23.314113368818184),POINT (-41.32746747588222 -13.62722007037801)
barra do jacare,d6e06531baf59b2a49ac89e25a371b1c,-23.112718429096926,-50.175860427059064,86385,46005,6f83d9e4da896daae20b9b6b2d3ff8d2,917e10fa00bd5acea0532dac72f09e68,6.0,pinhalao,-23.78978384153804,-50.058605709901606,84925.0,2709.0,POINT (-50.058605709901606 -23.78978384153804),POINT (-50.175860427059064 -23.112718429096926)
barra do pirai,0522feb4f362f150e2bb2ebf3f47cdac,-22.47405439094482,-43.822425368331196,27140,68216,3d871de0142ce09b7081e2b9d1733cb1,6e68e16808c71dd5b138917fee48bce0,5.0,campo limpo paulista,-23.211861520675228,-46.76228778069986,13232.0,2346.0,POINT (-46.76228778069986 -23.211861520675228),POINT (-43.822425368331196 -22.47405439094482)
barra do rio azul,73afc72acd21df38d6370f85e399dc31,-27.410053168682186,-52.41363609091986,99795,53244,a1043bafd471dff536d0c462352beb48,57f6d3bb73ed5867cdf53c4acff3f994,22.0,ilicinea,-20.940711526524826,-45.82719542395004,37175.0,2747.0,POINT (-45.82719542395004 -20.940711526524826),POINT (-52.41363609091986 -27.410053168682186)
barra do tarrachil,0415764d7efe50fff280fafa9777b327,-13.00910117780522,-38.525978987269255,48668,43658,89f69225956f951295ca4c7fb1266553,e9e6694329a69927508c82d943013cb5,10.0,vassouras,-22.407485158693497,-43.667737631511045,27700.0,2125.0,POINT (-43.667737631511045 -22.407485158693497),POINT (-38.525978987269255 -13.00910117780522)
barreira,a6f0724c88ff8742ef397186be22c75f,-4.291005351763954,-38.64208565510452,62795,52757,e49c26c3edfa46d227d5121a6b6e4d37,117ce86d1ddbcdf65da3ff7fe763ed09,5.0,brejao,-9.024839005157318,-36.57020044972058,55325.0,7.0,POINT (-36.57020044972058 -9.024839005157318),POINT (-38.64208565510452 -4.291005351763954)
barro,497cf630dd41e00e2a185a9e0cc5e02e,-7.174831793861531,-38.77837706866113,63380,69953,440dd6ab244315c632130ecfb63827b1,a831481fe241b8d8bc08c53fc98012b9,14.0,votuporanga,-20.41919419963036,-49.97701493190249,15502.0,1772.0,POINT (-49.97701493190249 -20.41919419963036),POINT (-38.77837706866113 -7.174831793861531)
bastos,04d410b4dfe0f11fb840a095b5f23cca,-21.921338855590665,-50.73222682174188,17690,16202,712e6ed8aa4aa1fa65dab41fed5737e4,b9ce6b3fb6996bc5690ee196a0c80888,4.0,videira,-27.004522453378566,-51.152808530844105,89560.0,2227.0,POINT (-51.152808530844105 -27.004522453378566),POINT (-50.73222682174188 -21.921338855590665)
bataipora,d6e816a35e42165ae9af6c44209dc565,-22.296790222960677,-53.26950374476603,79760,18560,e49c26c3edfa46d227d5121a6b6e4d37,0510b3fb25b0b62b1221ec1cd2e495ee,14.0,brejao,-9.024839005157318,-36.57020044972058,55325.0,7.0,POINT (-36.57020044972058 -9.024839005157318),POINT (-53.26950374476603 -22.296790222960677)
bayeux,119964566e4c0cbef2dac4d8a4291338,-7.128714534097154,-34.91990265148236,58306,16070,8f2ce03f928b567e3d56181ae20ae952,cda58baf4fa440869e819a444c1a65cd,6.0,pirituba,-23.491961535547016,-46.72914975470674,5141.0,2574.0,POINT (-46.72914975470674 -23.491961535547016),POINT (-34.91990265148236 -7.128714534097154)
bela vista de goias,13eafd20487a83074d2571c9db223951,-16.970918667282035,-48.950755621245726,75240,67279,99002261c568a84cce14d43fcffb43ea,da2cc97da753fb9c1879a123c6b522f0,11.0,cuiaba,-15.631239539867986,-56.07672038360924,78095.0,128.0,POINT (-56.07672038360924 -15.631239539867986),POINT (-48.950755621245726 -16.970918667282035)
bela vista de minas,46763c2a0cd789f76306c49835ed260d,-19.827973971984626,-43.090555321699455,35938,14990,0c8380b62e38e8a1e6adbeba7eb9688c,2ea2e9d43eeeec020af7c136c91858cc,6.0,tres coracoes,-21.693233185375103,-45.259366066052195,37410.0,116.0,POINT (-45.259366066052195 -21.693233185375103),POINT (-43.090555321699455 -19.827973971984626)
belem,004d41e9bf012c669db1a257888d85a2,-1.4824452109712676,-48.35939896059326,66087,5535,4869f7a5dfa277a7dca6462dcf3b52b2,de339d3dab036509a47753ddb94f1d55,23.0,guariba,-21.36347334469748,-48.2295879769369,14840.0,2618.0,POINT (-48.2295879769369 -21.36347334469748),POINT (-48.35939896059326 -1.4824452109712676)
benedito novo,09380077c3400002387e5d72cde34164,-26.782478490647716,-49.377676947291626,89124,5753,a5a1bfcf728ab0e19182959cf0771ee4,893d10bf292ce2aca52ba56c1d741764,7.0,socorro,-22.595144429716772,-46.51392941682048,13960.0,2275.0,POINT (-46.51392941682048 -22.595144429716772),POINT (-49.377676947291626 -26.782478490647716)
bento de abreu,b56ee98181afc3948a758d73a08423de,-21.273104879776337,-50.8113045140263,16790,37698,06e5eefc71ec47ae763c5c6f8db7064f,29941903985f944b0ffc49c479c1547d,4.0,porto alegre,-30.036305448969614,-51.19015005907546,91350.0,1375.0,POINT (-51.19015005907546 -30.036305448969614),POINT (-50.8113045140263 -21.273104879776337)
bento de abreu,b56ee98181afc3948a758d73a08423de,-21.273104879776337,-50.8113045140263,16790,37698,06e5eefc71ec47ae763c5c6f8db7064f,29941903985f944b0ffc49c479c1547d,4.0,porto alegre,-30.036305448969614,-51.19015005907546,91350.0,1375.0,POINT (-51.19015005907546 -30.036305448969614),POINT (-50.8113045140263 -21.273104879776337)
berilo,da2fbad9b2235c67c9bc7c7a274ee389,-16.918031460404087,-42.481529320785285,39640,69836,3bb32fedaa74e4ad20f4ce067733bd31,0b584b729bdfec204ec2aa5d21d6ca56,7.0,porto belo,-27.156918925167133,-48.56761529461856,88210.0,813.0,POINT (-48.56761529461856 -27.156918925167133),POINT (-42.481529320785285 -16.918031460404087)
bernardino de campos,2e1cea1baac7c5009630c0deb606f44b,-23.015406781344694,-49.477124428129386,18960,39027,6a8b085f816a1f75f92dbac6eb545f8f,255384e909a649f030d466c74684ed80,3.0,bebedouro,-20.924744757420648,-48.490740298476474,14709.0,1556.0,POINT (-48.490740298476474 -20.924744757420648),POINT (-49.477124428129386 -23.015406781344694)
betim,0041d7b768cb115092fa0f5d55638d06,-19.954264189154905,-44.167524347832845,32604,44330,0ffa40d54288e4f3499b8780dd0f144f,9b6f76f13e1e4d0d84297002186af20f,11.0,presidente prudente,-22.113381380642267,-51.40133989774777,19013.0,1935.0,POINT (-51.40133989774777 -22.113381380642267),POINT (-44.167524347832845 -19.954264189154905)
biritinga,b8736223535f5503a888a81a00e5a7c3,-11.621555345126012,-38.80810698947632,48780,15432,5bc24d989e71e93c33e50a7782431b0e,10946918b6dfb9d446d7fd1a39a45055,10.0,campo do meio,-21.109665382648636,-45.82946859543376,37165.0,488.0,POINT (-45.82946859543376 -21.109665382648636),POINT (-38.80810698947632 -11.621555345126012)
boa esperanca do iguacu,c83c1715a135347d7342686585a2b080,-25.635890270316757,-53.21452722260888,85680,73098,dee656f0f566ed1aa85bd137c943f08f,fe4275936c291c453f09fad434e6b3d2,23.0,cruzeiro,-22.578480898503827,-44.961783454390364,12701.0,921.0,POINT (-44.961783454390364 -22.578480898503827),POINT (-53.21452722260888 -25.635890270316757)
boa vista do cadeado,bfd92be530e742fb7109e67b08b14104,-28.57784247965511,-53.814064400269004,98118,29822,2b1a40c1daabc6ca280c4b815c101841,5631abbdf043a1a011622843c076cec1,28.0,divinopolis,-20.151193365916292,-44.89264375973146,35500.0,476.0,POINT (-44.89264375973146 -20.151193365916292),POINT (-53.814064400269004 -28.57784247965511)
bom jesus do araguaia,5dadf9303f4c0c38d65b444aaf92b86e,-12.252173190355476,-51.56961046532804,78678,8830,c847e075301870dd144a116762eaff9a,5dbf3bee4c547774bf74d477748dda22,24.0,uberaba,-19.755959535290103,-47.93825268975299,38022.0,2713.0,POINT (-47.93825268975299 -19.755959535290103),POINT (-51.56961046532804 -12.252173190355476)
bom principio,2063c45d074e54ecc9e4d6efa05459a6,-29.479788682777563,-51.35818639381889,95765,14319,17e34d8224d27a541263c4c64b11a56b,d50719e017b64d66a6e1a52e765ecfca,18.0,riberao preto,-21.16604702730375,-47.797948703989675,14085.0,3027.0,POINT (-47.797948703989675 -21.16604702730375),POINT (-51.35818639381889 -29.479788682777563)
bom repouso,1ed0c832c2dd99570a59260e71768bdf,-22.4708634482104,-46.14660109136166,37610,99430,51a04a8a6bdcb23deccc82b0b80742cf,51c6d2f460589fa7b65f2da51e860206,22.0,braganca paulista,-22.950454279697137,-46.531728171627016,12914.0,5.0,POINT (-46.531728171627016 -22.950454279697137),POINT (-46.14660109136166 -22.4708634482104)
bombinhas,0826150e089ab7d5356b412e9f3bea76,-27.15729033482312,-48.50553197897088,88215,10727,1f9ab4708f3056ede07124aad39a2554,9f64fb4d29aa2f254cc325c59a8f8b00,10.0,tupa,-21.93584016874602,-50.51329887609122,17602.0,36.0,POINT (-50.51329887609122 -21.93584016874602),POINT (-48.50553197897088 -27.15729033482312)
bonfim paulista,107cce44c67b79a9979e971dd6227aa2,-21.25342334993521,-47.816947598620715,14110,29933,c3867b4666c7d76867627c2f7fb22e21,30d6ee4a4d29531562ae9ca6c0635d61,3.0,guara,-20.432067568936827,-47.82429415688505,14580.0,1303.0,POINT (-47.82429415688505 -20.432067568936827),POINT (-47.816947598620715 -21.25342334993521)
bonito de minas,2e424e88b8c35f824145ee570fc9e027,-15.32313365488014,-44.75789116987176,39490,30548,d354c38a7182125a748cb10474fe963b,06f2e7e5aa8764a77b596c6eb6d56fd6,18.0,aperibe,-21.62594403385551,-42.10532354480054,28495.0,598.0,POINT (-42.10532354480054 -21.62594403385551),POINT (-44.75789116987176 -15.32313365488014)
botelhos,162063595acec23bfcab0eab134450b2,-21.64800458020063,-46.39818602714594,37720,2568,57e632711dec9ec14ca7546769483e7e,21af19181b59fd603fd2c40717d3897b,14.0,navegantes,-26.875243402471057,-48.6485641112122,88372.0,2694.0,POINT (-48.6485641112122 -26.875243402471057),POINT (-46.39818602714594 -21.64800458020063)
brazabrantes,3bf822526ed19260365ce453f2271fef,-16.432173555843978,-49.38686593618165,75440,22299,37515688008a7a40ac93e3b2e4ab203f,ad7bbf9e258c09c913e56dcba3433286,14.0,dracena,-21.486683807888387,-51.53395507459642,17900.0,2622.0,POINT (-51.53395507459642 -21.486683807888387),POINT (-49.38686593618165 -16.432173555843978)
breves,1ee0491f514e97b4cb72e860f1cd7f3e,-1.6837764453285624,-50.47904828328971,68800,37048,712e6ed8aa4aa1fa65dab41fed5737e4,4dcf0dcced3cfcb139316e2c821048e5,23.0,videira,-27.004522453378566,-51.152808530844105,89560.0,2227.0,POINT (-51.152808530844105 -27.004522453378566),POINT (-50.47904828328971 -1.6837764453285624)
brumado,0410837784e2dbaa9a557a94d9975b14,-14.205390362926416,-41.671351512555404,46100,85797,6a8b085f816a1f75f92dbac6eb545f8f,065a7d9057589f809082e012f696cb5d,14.0,bebedouro,-20.924744757420648,-48.490740298476474,14709.0,1556.0,POINT (-48.490740298476474 -20.924744757420648),POINT (-41.671351512555404 -14.205390362926416)
buriti,a5d427408fc3114f56e5b528b65fcb35,-3.944657148141793,-42.913889726142784,65515,12677,35ef5aa32949680f627efec3c23e705c,28f0558838bcded1adf9bd48f1bdc457,1.0,sombrio,-29.10842822273192,-49.635401751693095,88960.0,2710.0,POINT (-49.635401751693095 -29.10842822273192),POINT (-42.913889726142784 -3.944657148141793)
buriti,a5d427408fc3114f56e5b528b65fcb35,-3.944657148141793,-42.913889726142784,65515,12677,35ef5aa32949680f627efec3c23e705c,28f0558838bcded1adf9bd48f1bdc457,1.0,sombrio,-29.10842822273192,-49.635401751693095,88960.0,2710.0,POINT (-49.635401751693095 -29.10842822273192),POINT (-42.913889726142784 -3.944657148141793)
buriti,a5d427408fc3114f56e5b528b65fcb35,-3.944657148141793,-42.913889726142784,65515,12677,35ef5aa32949680f627efec3c23e705c,28f0558838bcded1adf9bd48f1bdc457,1.0,sombrio,-29.10842822273192,-49.635401751693095,88960.0,2710.0,POINT (-49.635401751693095 -29.10842822273192),POINT (-42.913889726142784 -3.944657148141793)
buriti,a5d427408fc3114f56e5b528b65fcb35,-3.944657148141793,-42.913889726142784,65515,12677,35ef5aa32949680f627efec3c23e705c,28f0558838bcded1adf9bd48f1bdc457,1.0,sombrio,-29.10842822273192,-49.635401751693095,88960.0,2710.0,POINT (-49.635401751693095 -29.10842822273192),POINT (-42.913889726142784 -3.944657148141793)
buriti,a5d427408fc3114f56e5b528b65fcb35,-3.944657148141793,-42.913889726142784,65515,12677,35ef5aa32949680f627efec3c23e705c,28f0558838bcded1adf9bd48f1bdc457,1.0,sombrio,-29.10842822273192,-49.635401751693095,88960.0,2710.0,POINT (-49.635401751693095 -29.10842822273192),POINT (-42.913889726142784 -3.944657148141793)
buriti,a5d427408fc3114f56e5b528b65fcb35,-3.944657148141793,-42.913889726142784,65515,12677,35ef5aa32949680f627efec3c23e705c,28f0558838bcded1adf9bd48f1bdc457,1.0,sombrio,-29.10842822273192,-49.635401751693095,88960.0,2710.0,POINT (-49.635401751693095 -29.10842822273192),POINT (-42.913889726142784 -3.944657148141793)
buriti,a5d427408fc3114f56e5b528b65fcb35,-3.944657148141793,-42.913889726142784,65515,12677,35ef5aa32949680f627efec3c23e705c,28f0558838bcded1adf9bd48f1bdc457,1.0,sombrio,-29.10842822273192,-49.635401751693095,88960.0,2710.0,POINT (-49.635401751693095 -29.10842822273192),POINT (-42.913889726142784 -3.944657148141793)
buriti,a5d427408fc3114f56e5b528b65fcb35,-3.944657148141793,-42.913889726142784,65515,12677,35ef5aa32949680f627efec3c23e705c,28f0558838bcded1adf9bd48f1bdc457,1.0,sombrio,-29.10842822273192,-49.635401751693095,88960.0,2710.0,POINT (-49.635401751693095 -29.10842822273192),POINT (-42.913889726142784 -3.944657148141793)
buriti,a5d427408fc3114f56e5b528b65fcb35,-3.944657148141793,-42.913889726142784,65515,12677,35ef5aa32949680f627efec3c23e705c,28f0558838bcded1adf9bd48f1bdc457,1.0,sombrio,-29.10842822273192,-49.635401751693095,88960.0,2710.0,POINT (-49.635401751693095 -29.10842822273192),POINT (-42.913889726142784 -3.944657148141793)
buriti,a5d427408fc3114f56e5b528b65fcb35,-3.944657148141793,-42.913889726142784,65515,12677,35ef5aa32949680f627efec3c23e705c,28f0558838bcded1adf9bd48f1bdc457,1.0,sombrio,-29.10842822273192,-49.635401751693095,88960.0,2710.0,POINT (-49.635401751693095 -29.10842822273192),POINT (-42.913889726142784 -3.944657148141793)
buriti,a5d427408fc3114f56e5b528b65fcb35,-3.944657148141793,-42.913889726142784,65515,12677,35ef5aa32949680f627efec3c23e705c,28f0558838bcded1adf9bd48f1bdc457,1.0,sombrio,-29.10842822273192,-49.635401751693095,88960.0,2710.0,POINT (-49.635401751693095 -29.10842822273192),POINT (-42.913889726142784 -3.944657148141793)
buriti,a5d427408fc3114f56e5b528b65fcb35,-3.944657148141793,-42.913889726142784,65515,12677,35ef5aa32949680f627efec3c23e705c,28f0558838bcded1adf9bd48f1bdc457,1.0,sombrio,-29.10842822273192,-49.635401751693095,88960.0,2710.0,POINT (-49.635401751693095 -29.10842822273192),POINT (-42.913889726142784 -3.944657148141793)
cabreuva,31a8654d467ab5c0d7a4a273272c460f,-23.27479744106395,-47.087194087137846,13315,93720,4869f7a5dfa277a7dca6462dcf3b52b2,1f0e3e7a13d98443333a705e4ea42148,24.0,guariba,-21.36347334469748,-48.2295879769369,14840.0,2618.0,POINT (-48.2295879769369 -21.36347334469748),POINT (-47.087194087137846 -23.27479744106395)
cabrobo,4129a074aa14aa3d7a5fea1f15ab73bb,-8.508697397497848,-39.30930015242795,56180,79900,3d871de0142ce09b7081e2b9d1733cb1,1250f8fc1f64f9c63ea3cd35c0a36a85,23.0,campo limpo paulista,-23.211861520675228,-46.76228778069986,13232.0,2346.0,POINT (-46.76228778069986 -23.211861520675228),POINT (-39.30930015242795 -8.508697397497848)
cachoeira alta,15220c6163daf6422c2afa69504e75b3,-18.75347309264925,-50.94690617312255,75870,22117,1554a68530182680ad5c8b042c3ab563,cdd2bd78457525991f04c54ebf835027,10.0,monte siao,-22.43061273369082,-46.57334084810494,37580.0,524.0,POINT (-46.57334084810494 -22.43061273369082),POINT (-50.94690617312255 -18.75347309264925)
cachoeira paulista,1123655082f805a8926e8a53ee60b01d,-22.66614386362443,-45.01009931203418,12630,7157,0ea22c1cfbdc755f86b9b54b39c16043,d88817e778e1757d6b7ea060be13a7f3,8.0,sete lagoas,-19.458191844684535,-44.24378281508432,35700.0,2216.0,POINT (-44.24378281508432 -19.458191844684535),POINT (-45.01009931203418 -22.66614386362443)
cachoeira paulista,1123655082f805a8926e8a53ee60b01d,-22.66614386362443,-45.01009931203418,12630,7157,0ea22c1cfbdc755f86b9b54b39c16043,d88817e778e1757d6b7ea060be13a7f3,8.0,sete lagoas,-19.458191844684535,-44.24378281508432,35700.0,2216.0,POINT (-44.24378281508432 -19.458191844684535),POINT (-45.01009931203418 -22.66614386362443)
cachoeira paulista,1123655082f805a8926e8a53ee60b01d,-22.66614386362443,-45.01009931203418,12630,7157,0ea22c1cfbdc755f86b9b54b39c16043,d88817e778e1757d6b7ea060be13a7f3,8.0,sete lagoas,-19.458191844684535,-44.24378281508432,35700.0,2216.0,POINT (-44.24378281508432 -19.458191844684535),POINT (-45.01009931203418 -22.66614386362443)
cachoeira paulista,1123655082f805a8926e8a53ee60b01d,-22.66614386362443,-45.01009931203418,12630,7157,0ea22c1cfbdc755f86b9b54b39c16043,d88817e778e1757d6b7ea060be13a7f3,8.0,sete lagoas,-19.458191844684535,-44.24378281508432,35700.0,2216.0,POINT (-44.24378281508432 -19.458191844684535),POINT (-45.01009931203418 -22.66614386362443)
cachoeira paulista,1123655082f805a8926e8a53ee60b01d,-22.66614386362443,-45.01009931203418,12630,7157,0ea22c1cfbdc755f86b9b54b39c16043,d88817e778e1757d6b7ea060be13a7f3,8.0,sete lagoas,-19.458191844684535,-44.24378281508432,35700.0,2216.0,POINT (-44.24378281508432 -19.458191844684535),POINT (-45.01009931203418 -22.66614386362443)
cachoeira paulista,1123655082f805a8926e8a53ee60b01d,-22.66614386362443,-45.01009931203418,12630,7157,0ea22c1cfbdc755f86b9b54b39c16043,d88817e778e1757d6b7ea060be13a7f3,8.0,sete lagoas,-19.458191844684535,-44.24378281508432,35700.0,2216.0,POINT (-44.24378281508432 -19.458191844684535),POINT (-45.01009931203418 -22.66614386362443)
cachoeira paulista,1123655082f805a8926e8a53ee60b01d,-22.66614386362443,-45.01009931203418,12630,7157,0ea22c1cfbdc755f86b9b54b39c16043,d88817e778e1757d6b7ea060be13a7f3,8.0,sete lagoas,-19.458191844684535,-44.24378281508432,35700.0,2216.0,POINT (-44.24378281508432 -19.458191844684535),POINT (-45.01009931203418 -22.66614386362443)
cachoeira paulista,1123655082f805a8926e8a53ee60b01d,-22.66614386362443,-45.01009931203418,12630,7157,0ea22c1cfbdc755f86b9b54b39c16043,d88817e778e1757d6b7ea060be13a7f3,8.0,sete lagoas,-19.458191844684535,-44.24378281508432,35700.0,2216.0,POINT (-44.24378281508432 -19.458191844684535),POINT (-45.01009931203418 -22.66614386362443)
caetanopolis,023340b4cc63d20a56d1afa725970627,-19.30409745887857,-44.4094422534488,35770,93780,7c51de0ab286204ce75ff42bf7c10d92,749890e9e1720de87c27367481a3d111,6.0,picarras,-26.76088503703848,-48.67964304885746,88380.0,2919.0,POINT (-48.67964304885746 -26.76088503703848),POINT (-44.4094422534488 -19.30409745887857)
caete,01ea4160e63a7ce5101967e07ddf4c18,-19.885495972269524,-43.66515199790923,34800,10139,dee656f0f566ed1aa85bd137c943f08f,3d1bbd8630ca04120738e98740d93503,6.0,cruzeiro,-22.578480898503827,-44.961783454390364,12701.0,921.0,POINT (-44.961783454390364 -22.578480898503827),POINT (-43.66515199790923 -19.885495972269524)
caldas brandao,632615afeadba799faf8226958a2eaa3,-7.161965454299922,-35.34996167963895,58350,85928,17908cf9b444ee34047cadd5c0f4a516,06eed67b7a87cac349143f3319c2b9fe,11.0,anapolis,-16.34733357691327,-48.95409257113073,75124.0,2887.0,POINT (-48.95409257113073 -16.34733357691327),POINT (-35.34996167963895 -7.161965454299922)
camacari,02cd8ee24434a2bb2574b61ba5f659a8,-12.704990994688647,-38.324381555043324,42806,93446,12b9676b00f60f3b700e83af21824c0e,cb131e46e2b29aca864751d16e6030af,10.0,montenegro,-29.688238317970825,-51.4687297294334,95780.0,1025.0,POINT (-51.4687297294334 -29.688238317970825),POINT (-38.324381555043324 -12.704990994688647)
camaqua,0bc43b91c520f4f56eda898ab9d0a4d3,-30.85407153490333,-51.808620559476125,96180,38781,ab9db4cf53b08b828b64dccaafc2d9f0,64793ed51799074a85ec8bc4b3e365e6,4.0,paraiso do sul,-29.72261976918127,-53.179103555284705,96530.0,2043.0,POINT (-53.179103555284705 -29.72261976918127),POINT (-51.808620559476125 -30.85407153490333)
camaragibe,04fbe9cd7c2f918568c5b4e934a56316,-8.012045992679582,-34.99050511963267,54783,74588,06a2c3af7b3aee5d69171b0e14f0ee87,5f2aaf089bdf0d14f2357066f139c2a4,32.0,sao luis,-2.503157606634558,-44.24938912079653,65072.0,1931.0,POINT (-44.24938912079653 -2.503157606634558),POINT (-34.99050511963267 -8.012045992679582)
cambara do sul,a0c1bbd0f275db18373071736a2050d1,-29.05371154274163,-50.14464366422576,95480,32796,30829ded4523ab9224b93bc49a62c95f,3e79636f6031f6b4f05b671928369588,3.0,parai,-28.596184659157494,-51.78698571803447,95360.0,594.0,POINT (-51.78698571803447 -28.596184659157494),POINT (-50.14464366422576 -29.05371154274163)
cambara do sul,a0c1bbd0f275db18373071736a2050d1,-29.05371154274163,-50.14464366422576,95480,32796,30829ded4523ab9224b93bc49a62c95f,3e79636f6031f6b4f05b671928369588,3.0,parai,-28.596184659157494,-51.78698571803447,95360.0,594.0,POINT (-51.78698571803447 -28.596184659157494),POINT (-50.14464366422576 -29.05371154274163)
cambara do sul,a0c1bbd0f275db18373071736a2050d1,-29.05371154274163,-50.14464366422576,95480,32796,30829ded4523ab9224b93bc49a62c95f,3e79636f6031f6b4f05b671928369588,3.0,parai,-28.596184659157494,-51.78698571803447,95360.0,594.0,POINT (-51.78698571803447 -28.596184659157494),POINT (-50.14464366422576 -29.05371154274163)
cambara do sul,a0c1bbd0f275db18373071736a2050d1,-29.05371154274163,-50.14464366422576,95480,32796,30829ded4523ab9224b93bc49a62c95f,3e79636f6031f6b4f05b671928369588,3.0,parai,-28.596184659157494,-51.78698571803447,95360.0,594.0,POINT (-51.78698571803447 -28.596184659157494),POINT (-50.14464366422576 -29.05371154274163)
cambara do sul,a0c1bbd0f275db18373071736a2050d1,-29.05371154274163,-50.14464366422576,95480,32796,30829ded4523ab9224b93bc49a62c95f,3e79636f6031f6b4f05b671928369588,3.0,parai,-28.596184659157494,-51.78698571803447,95360.0,594.0,POINT (-51.78698571803447 -28.596184659157494),POINT (-50.14464366422576 -29.05371154274163)
cambara do sul,a0c1bbd0f275db18373071736a2050d1,-29.05371154274163,-50.14464366422576,95480,32796,30829ded4523ab9224b93bc49a62c95f,3e79636f6031f6b4f05b671928369588,3.0,parai,-28.596184659157494,-51.78698571803447,95360.0,594.0,POINT (-51.78698571803447 -28.596184659157494),POINT (-50.14464366422576 -29.05371154274163)
cambara do sul,a0c1bbd0f275db18373071736a2050d1,-29.05371154274163,-50.14464366422576,95480,32796,30829ded4523ab9224b93bc49a62c95f,3e79636f6031f6b4f05b671928369588,3.0,parai,-28.596184659157494,-51.78698571803447,95360.0,594.0,POINT (-51.78698571803447 -28.596184659157494),POINT (-50.14464366422576 -29.05371154274163)
cambara do sul,a0c1bbd0f275db18373071736a2050d1,-29.05371154274163,-50.14464366422576,95480,32796,30829ded4523ab9224b93bc49a62c95f,3e79636f6031f6b4f05b671928369588,3.0,parai,-28.596184659157494,-51.78698571803447,95360.0,594.0,POINT (-51.78698571803447 -28.596184659157494),POINT (-50.14464366422576 -29.05371154274163)
camocim,1b5f0fa3c646d0d8ab7fc76f8759c8a4,-2.90303566812707,-40.84688864835992,62400,57867,3db66a856d18a9cba7c9241fc5221c50,b1cd362ad264b0da57a669fa27c8f5cc,25.0,ponte nova,-20.41022536716159,-42.8993095333992,35430.0,206.0,POINT (-42.8993095333992 -20.41022536716159),POINT (-40.84688864835992 -2.90303566812707)
campina do monte alegre,2519489d405209a56e9c18d2969c9ca3,-23.571758038155142,-48.436810027920366,18245,88467,238fac594e170b59c6d228f5a4f4f1d9,abfbbd144a437c6a51564ea668aab4b6,5.0,dois corregos,-22.367915204565957,-48.38643158098792,17300.0,2429.0,POINT (-48.38643158098792 -22.367915204565957),POINT (-48.436810027920366 -23.571758038155142)
campina verde,0aef4c77e341d8944b0e48f4decaaa47,-19.5353499185091,-49.49160947125044,38270,25694,a1043bafd471dff536d0c462352beb48,02d3254501ce969c22c38d060166bf68,7.0,ilicinea,-20.940711526524826,-45.82719542395004,37175.0,2747.0,POINT (-45.82719542395004 -20.940711526524826),POINT (-49.49160947125044 -19.5353499185091)
campo alegre de goias,14555edc3920d5f094b0f2278bfbd438,-17.63539557959856,-47.7761984522561,75795,95199,a1043bafd471dff536d0c462352beb48,dad7fd1c4434137c836f09ae15ec86a4,35.0,ilicinea,-20.940711526524826,-45.82719542395004,37175.0,2747.0,POINT (-45.82719542395004 -20.940711526524826),POINT (-47.7761984522561 -17.63539557959856)
campo alegre do fidalgo,7195a1af3384ded47cea23f53d91405f,-8.377521277196188,-41.836442559380714,64767,61815,9b013e03b2ab786505a1d3b5c0756754,d248ddd0378083cb6c2bc7b9881d37d4,22.0,vicente de carvalho,-23.941965314062323,-46.302528865369084,11450.0,288.0,POINT (-46.302528865369084 -23.941965314062323),POINT (-41.836442559380714 -8.377521277196188)
campo alegre do fidalgo,7195a1af3384ded47cea23f53d91405f,-8.377521277196188,-41.836442559380714,64767,61815,9b013e03b2ab786505a1d3b5c0756754,d248ddd0378083cb6c2bc7b9881d37d4,22.0,vicente de carvalho,-23.941965314062323,-46.302528865369084,11450.0,288.0,POINT (-46.302528865369084 -23.941965314062323),POINT (-41.836442559380714 -8.377521277196188)
campo alegre do fidalgo,7195a1af3384ded47cea23f53d91405f,-8.377521277196188,-41.836442559380714,64767,61815,9b013e03b2ab786505a1d3b5c0756754,d248ddd0378083cb6c2bc7b9881d37d4,22.0,vicente de carvalho,-23.941965314062323,-46.302528865369084,11450.0,288.0,POINT (-46.302528865369084 -23.941965314062323),POINT (-41.836442559380714 -8.377521277196188)
campo alegre do fidalgo,7195a1af3384ded47cea23f53d91405f,-8.377521277196188,-41.836442559380714,64767,61815,9b013e03b2ab786505a1d3b5c0756754,d248ddd0378083cb6c2bc7b9881d37d4,22.0,vicente de carvalho,-23.941965314062323,-46.302528865369084,11450.0,288.0,POINT (-46.302528865369084 -23.941965314062323),POINT (-41.836442559380714 -8.377521277196188)
campo alegre do fidalgo,7195a1af3384ded47cea23f53d91405f,-8.377521277196188,-41.836442559380714,64767,61815,9b013e03b2ab786505a1d3b5c0756754,d248ddd0378083cb6c2bc7b9881d37d4,22.0,vicente de carvalho,-23.941965314062323,-46.302528865369084,11450.0,288.0,POINT (-46.302528865369084 -23.941965314062323),POINT (-41.836442559380714 -8.377521277196188)
campo alegre do fidalgo,7195a1af3384ded47cea23f53d91405f,-8.377521277196188,-41.836442559380714,64767,61815,9b013e03b2ab786505a1d3b5c0756754,d248ddd0378083cb6c2bc7b9881d37d4,22.0,vicente de carvalho,-23.941965314062323,-46.302528865369084,11450.0,288.0,POINT (-46.302528865369084 -23.941965314062323),POINT (-41.836442559380714 -8.377521277196188)
campo alegre do fidalgo,7195a1af3384ded47cea23f53d91405f,-8.377521277196188,-41.836442559380714,64767,61815,9b013e03b2ab786505a1d3b5c0756754,d248ddd0378083cb6c2bc7b9881d37d4,22.0,vicente de carvalho,-23.941965314062323,-46.302528865369084,11450.0,288.0,POINT (-46.302528865369084 -23.941965314062323),POINT (-41.836442559380714 -8.377521277196188)
campo alegre do fidalgo,7195a1af3384ded47cea23f53d91405f,-8.377521277196188,-41.836442559380714,64767,61815,9b013e03b2ab786505a1d3b5c0756754,d248ddd0378083cb6c2bc7b9881d37d4,22.0,vicente de carvalho,-23.941965314062323,-46.302528865369084,11450.0,288.0,POINT (-46.302528865369084 -23.941965314062323),POINT (-41.836442559380714 -8.377521277196188)
campo belo,031cc879a34f7c1f10a2b25a5d3e5b0a,-20.893531447278015,-45.27572348532854,37270,86380,a1043bafd471dff536d0c462352beb48,b6759a40becdcdd336eecc0a3a833763,9.0,ilicinea,-20.940711526524826,-45.82719542395004,37175.0,2747.0,POINT (-45.82719542395004 -20.940711526524826),POINT (-45.27572348532854 -20.893531447278015)
campo florido,e750210dde7e68dbd5194c0809e97f7e,-19.76241712969078,-48.57504542365211,38130,55804,4324dd16853115efb0fd9d0d131ba6f4,59e88b7d3675e89aceaf86f372d3bc9a,11.0,sao jose do rio pardo,-21.58455784193842,-46.9427932354964,13720.0,656.0,POINT (-46.9427932354964 -21.58455784193842),POINT (-48.57504542365211 -19.76241712969078)
campo florido,e750210dde7e68dbd5194c0809e97f7e,-19.76241712969078,-48.57504542365211,38130,55804,4324dd16853115efb0fd9d0d131ba6f4,59e88b7d3675e89aceaf86f372d3bc9a,11.0,sao jose do rio pardo,-21.58455784193842,-46.9427932354964,13720.0,656.0,POINT (-46.9427932354964 -21.58455784193842),POINT (-48.57504542365211 -19.76241712969078)
campo florido,e750210dde7e68dbd5194c0809e97f7e,-19.76241712969078,-48.57504542365211,38130,55804,4324dd16853115efb0fd9d0d131ba6f4,59e88b7d3675e89aceaf86f372d3bc9a,11.0,sao jose do rio pardo,-21.58455784193842,-46.9427932354964,13720.0,656.0,POINT (-46.9427932354964 -21.58455784193842),POINT (-48.57504542365211 -19.76241712969078)
campo florido,e750210dde7e68dbd5194c0809e97f7e,-19.76241712969078,-48.57504542365211,38130,55804,4324dd16853115efb0fd9d0d131ba6f4,59e88b7d3675e89aceaf86f372d3bc9a,11.0,sao jose do rio pardo,-21.58455784193842,-46.9427932354964,13720.0,656.0,POINT (-46.9427932354964 -21.58455784193842),POINT (-48.57504542365211 -19.76241712969078)
campo florido,e750210dde7e68dbd5194c0809e97f7e,-19.76241712969078,-48.57504542365211,38130,55804,4324dd16853115efb0fd9d0d131ba6f4,59e88b7d3675e89aceaf86f372d3bc9a,11.0,sao jose do rio pardo,-21.58455784193842,-46.9427932354964,13720.0,656.0,POINT (-46.9427932354964 -21.58455784193842),POINT (-48.57504542365211 -19.76241712969078)
campo florido,e750210dde7e68dbd5194c0809e97f7e,-19.76241712969078,-48.57504542365211,38130,55804,4324dd16853115efb0fd9d0d131ba6f4,59e88b7d3675e89aceaf86f372d3bc9a,11.0,sao jose do rio pardo,-21.58455784193842,-46.9427932354964,13720.0,656.0,POINT (-46.9427932354964 -21.58455784193842),POINT (-48.57504542365211 -19.76241712969078)
campo florido,e750210dde7e68dbd5194c0809e97f7e,-19.76241712969078,-48.57504542365211,38130,55804,4324dd16853115efb0fd9d0d131ba6f4,59e88b7d3675e89aceaf86f372d3bc9a,11.0,sao jose do rio pardo,-21.58455784193842,-46.9427932354964,13720.0,656.0,POINT (-46.9427932354964 -21.58455784193842),POINT (-48.57504542365211 -19.76241712969078)
campo florido,e750210dde7e68dbd5194c0809e97f7e,-19.76241712969078,-48.57504542365211,38130,55804,4324dd16853115efb0fd9d0d131ba6f4,59e88b7d3675e89aceaf86f372d3bc9a,11.0,sao jose do rio pardo,-21.58455784193842,-46.9427932354964,13720.0,656.0,POINT (-46.9427932354964 -21.58455784193842),POINT (-48.57504542365211 -19.76241712969078)
campo largo,01b29f87009aab9f829369f51478168e,-25.462409261986608,-49.527451015648055,83609,78051,3d871de0142ce09b7081e2b9d1733cb1,1c2e03f112c29c38cc65602a33043198,9.0,campo limpo paulista,-23.211861520675228,-46.76228778069986,13232.0,2346.0,POINT (-46.76228778069986 -23.211861520675228),POINT (-49.527451015648055 -25.462409261986608)
campos altos,058d8b79c27b59949ec91fc3cb584658,-19.69690076424821,-46.1700770722563,38970,39194,06a2c3af7b3aee5d69171b0e14f0ee87,be315a78a8989c669993c22b50f3920c,11.0,sao luis,-2.503157606634558,-44.24938912079653,65072.0,1931.0,POINT (-44.24938912079653 -2.503157606634558),POINT (-46.1700770722563 -19.69690076424821)
campos dos goytacazes,007da0ded5420c2ac9cdcdc758841cde,-21.763653798020542,-41.32198367854484,28080,35648,ce7d1888639e6fb06b2749cbfdac1ff7,badd0610d349f865d84d27e36b2abde4,6.0,baependi,-21.960840371079797,-44.88799124145116,37443.0,1996.0,POINT (-44.88799124145116 -21.960840371079797),POINT (-41.32198367854484 -21.763653798020542)
campos dos goytacazes,007da0ded5420c2ac9cdcdc758841cde,-21.763653798020542,-41.32198367854484,28080,35648,ce7d1888639e6fb06b2749cbfdac1ff7,badd0610d349f865d84d27e36b2abde4,6.0,baependi,-21.960840371079797,-44.88799124145116,37443.0,1996.0,POINT (-44.88799124145116 -21.960840371079797),POINT (-41.32198367854484 -21.763653798020542)
camutanga,1475f4faed88140845d11c61adb65a0e,-7.408333948577803,-35.27303670858118,55930,56175,dee656f0f566ed1aa85bd137c943f08f,417b5687161450887ef2e6b283c15c32,17.0,cruzeiro,-22.578480898503827,-44.961783454390364,12701.0,921.0,POINT (-44.961783454390364 -22.578480898503827),POINT (-35.27303670858118 -7.408333948577803)
canaa dos carajas,0e452884350c12f7a85429773c5b6472,-6.529615937809024,-49.85743159680344,68537,64437,7139dc5186aa238b006e066d8fbab2e4,137135c30e53ddac60ef16b8ef6d4d54,67.0,amparo,-22.707665769074094,-46.790073122334135,13901.0,2932.0,POINT (-46.790073122334135 -22.707665769074094),POINT (-49.85743159680344 -6.529615937809024)
candeias do jamari,725cb0062f2215d2f731bef5957d1faf,-8.814138436356746,-63.664024097752346,76860,18148,19a7c9f66ffa6452ff4b4c0cca71da27,0bc97d91a9a3a1923234614958556071,21.0,itaipulandia,-25.148443566560527,-54.30264039051029,85880.0,2836.0,POINT (-54.30264039051029 -25.148443566560527),POINT (-63.664024097752346 -8.814138436356746)
candido sales,175dd7b2bfca46e0ff5cbca65b9c6e7b,-15.473398942429341,-41.247442227390465,45157,84185,d93919c944be9cff128f6c9cb899eacb,1c8898140458c37fbbf0be37d47193b9,22.0,mombuca,-20.56936647541443,-46.02311914850127,13375.0,481.0,POINT (-46.02311914850127 -20.56936647541443),POINT (-41.247442227390465 -15.473398942429341)
candiota,41f62aaf741486d48b7f7d054b6c1adf,-31.500420809940444,-53.693130310392256,96495,29792,3d871de0142ce09b7081e2b9d1733cb1,31dda941b6ee5942d784d50d6b3092b2,8.0,campo limpo paulista,-23.211861520675228,-46.76228778069986,13232.0,2346.0,POINT (-46.76228778069986 -23.211861520675228),POINT (-53.693130310392256 -31.500420809940444)
canela,0054556ea954a76ad6f9c4ba79d34a98,-29.360440226259545,-50.81066234990898,95680,33781,48fb026ed7455a42f5d3e9390ed5088e,ea39d327906c9e8540a9b0f5004dcf46,8.0,barra mansa,-22.533596167807847,-44.19259480054752,27321.0,388.0,POINT (-44.19259480054752 -22.533596167807847),POINT (-50.81066234990898 -29.360440226259545)
canelinha,3535d2552102ae23095147d0409f0d20,-27.265663604167866,-48.76818754573919,88230,23876,4869f7a5dfa277a7dca6462dcf3b52b2,7229557b67bb7b631f68aa308462a533,13.0,guariba,-21.36347334469748,-48.2295879769369,14840.0,2618.0,POINT (-48.2295879769369 -21.36347334469748),POINT (-48.76818754573919 -27.265663604167866)
canoas,022b1e47fbf658d8e3865c8753bf361f,-29.917703319083355,-51.17429685631077,92310,43643,715bbd5ba4e6b74cb0d2f29eb45058b0,a35bf517586a9609441f4d6f8db9f6d2,38.0,serra negra,-22.61618709340345,-46.710428928505245,13930.0,878.0,POINT (-46.710428928505245 -22.61618709340345),POINT (-51.17429685631077 -29.917703319083355)
canoinhas,10492206abde41009b952754aebaf8af,-26.17782757725076,-50.39250254993521,89460,32273,4e7c18b98d84e05cbae3ff0ff03846c2,a702e68bc7f4b63f299ffe8105a5ac20,11.0,jaboticabal,-21.251604451351,-48.31942506684334,14882.0,84.0,POINT (-48.31942506684334 -21.251604451351),POINT (-50.39250254993521 -26.17782757725076)
capela de santana,b0b2ad65278fa9b0d77bccfeab5a37e4,-29.680512295650857,-51.32118781599505,95745,19169,c3867b4666c7d76867627c2f7fb22e21,e85a4861022f27b6764e4fc0372323e0,13.0,guara,-20.432067568936827,-47.82429415688505,14580.0,1303.0,POINT (-47.82429415688505 -20.432067568936827),POINT (-51.32118781599505 -29.680512295650857)
capela do alto,20ef37d0d06b9aadbbb7b9598a22ff00,-23.476900722788837,-47.73869781696905,18195,62871,712e6ed8aa4aa1fa65dab41fed5737e4,c2d771090d760b5ca0ba96a3c071c7db,9.0,videira,-27.004522453378566,-51.152808530844105,89560.0,2227.0,POINT (-51.152808530844105 -27.004522453378566),POINT (-47.73869781696905 -23.476900722788837)
capinzal do norte,bf391aa5a48fbaee55092f1993be3926,-4.711055273955796,-44.32736161571313,65735,92348,4fb41dff7c50136976d1a5cf004a42e2,4fbc8d6f2f4db3e789d5a876fa349b56,163.0,feira de santana,-12.253808874130758,-38.967661614726445,44002.0,2602.0,POINT (-38.967661614726445 -12.253808874130758),POINT (-44.32736161571313 -4.711055273955796)
capitao andrade,dcad1d81f5929fa310a1a36681535e4d,-19.071183051265177,-41.8632453890104,35123,20450,4869f7a5dfa277a7dca6462dcf3b52b2,31effa440b34ae0432d83ef645db463a,9.0,guariba,-21.36347334469748,-48.2295879769369,14840.0,2618.0,POINT (-48.2295879769369 -21.36347334469748),POINT (-41.8632453890104 -19.071183051265177)
capitao eneas,d884f544da907f4cc6ffc6504f6a27c5,-16.55708209814901,-43.748552812591626,39472,60633,4da0e408c99d2fdc2126dc9fce518060,a89e14734d926ba4f06da4c653abf873,10.0,cornelio procopio,-23.18132628428975,-50.64933554119287,86300.0,2554.0,POINT (-50.64933554119287 -23.18132628428975),POINT (-43.748552812591626 -16.55708209814901)
capitao eneas,d884f544da907f4cc6ffc6504f6a27c5,-16.55708209814901,-43.748552812591626,39472,60633,4da0e408c99d2fdc2126dc9fce518060,a89e14734d926ba4f06da4c653abf873,10.0,cornelio procopio,-23.18132628428975,-50.64933554119287,86300.0,2554.0,POINT (-50.64933554119287 -23.18132628428975),POINT (-43.748552812591626 -16.55708209814901)
capitao eneas,d884f544da907f4cc6ffc6504f6a27c5,-16.55708209814901,-43.748552812591626,39472,60633,4da0e408c99d2fdc2126dc9fce518060,a89e14734d926ba4f06da4c653abf873,10.0,cornelio procopio,-23.18132628428975,-50.64933554119287,86300.0,2554.0,POINT (-50.64933554119287 -23.18132628428975),POINT (-43.748552812591626 -16.55708209814901)
capitao eneas,d884f544da907f4cc6ffc6504f6a27c5,-16.55708209814901,-43.748552812591626,39472,60633,4da0e408c99d2fdc2126dc9fce518060,a89e14734d926ba4f06da4c653abf873,10.0,cornelio procopio,-23.18132628428975,-50.64933554119287,86300.0,2554.0,POINT (-50.64933554119287 -23.18132628428975),POINT (-43.748552812591626 -16.55708209814901)
capitao eneas,d884f544da907f4cc6ffc6504f6a27c5,-16.55708209814901,-43.748552812591626,39472,60633,4da0e408c99d2fdc2126dc9fce518060,a89e14734d926ba4f06da4c653abf873,10.0,cornelio procopio,-23.18132628428975,-50.64933554119287,86300.0,2554.0,POINT (-50.64933554119287 -23.18132628428975),POINT (-43.748552812591626 -16.55708209814901)
capitao eneas,d884f544da907f4cc6ffc6504f6a27c5,-16.55708209814901,-43.748552812591626,39472,60633,4da0e408c99d2fdc2126dc9fce518060,a89e14734d926ba4f06da4c653abf873,10.0,cornelio procopio,-23.18132628428975,-50.64933554119287,86300.0,2554.0,POINT (-50.64933554119287 -23.18132628428975),POINT (-43.748552812591626 -16.55708209814901)
capitao eneas,d884f544da907f4cc6ffc6504f6a27c5,-16.55708209814901,-43.748552812591626,39472,60633,4da0e408c99d2fdc2126dc9fce518060,a89e14734d926ba4f06da4c653abf873,10.0,cornelio procopio,-23.18132628428975,-50.64933554119287,86300.0,2554.0,POINT (-50.64933554119287 -23.18132628428975),POINT (-43.748552812591626 -16.55708209814901)
capitao eneas,d884f544da907f4cc6ffc6504f6a27c5,-16.55708209814901,-43.748552812591626,39472,60633,4da0e408c99d2fdc2126dc9fce518060,a89e14734d926ba4f06da4c653abf873,10.0,cornelio procopio,-23.18132628428975,-50.64933554119287,86300.0,2554.0,POINT (-50.64933554119287 -23.18132628428975),POINT (-43.748552812591626 -16.55708209814901)
capivari de baixo,39fd6d063a9335b98a5045cada7081dc,-28.444165229566483,-48.95660973919736,88745,73222,001cca7ae9ae17fb1caed9dfb1094831,07dba073c2b18c2c748f28ed51c87ee8,22.0,cariacica,-20.301260880441404,-40.394696907072586,29156.0,1110.0,POINT (-40.394696907072586 -20.301260880441404),POINT (-48.95660973919736 -28.444165229566483)
capoeiras,6eefcbb934fc4db2d70ac7fa4759afb3,-8.738398503248888,-36.62696357103045,55365,40324,2dee2ce60de9709b1a24083217181a1f,2c7166305c873b61875185c04a58fce5,9.0,sinop,-11.834704656670672,-55.5081454221622,78552.0,1064.0,POINT (-55.5081454221622 -11.834704656670672),POINT (-36.62696357103045 -8.738398503248888)
caputira,84fb94e88cc2e3e090d76e95dd6236d5,-20.172712451218008,-42.2708373021644,36925,87168,ce7d1888639e6fb06b2749cbfdac1ff7,a91402873e20638661e1df60e8eb63dd,8.0,baependi,-21.960840371079797,-44.88799124145116,37443.0,1996.0,POINT (-44.88799124145116 -21.960840371079797),POINT (-42.2708373021644 -20.172712451218008)
carai,5a1470d43d8ad960d4199134d3df48e0,-17.187384231128462,-41.69734068618584,39810,51700,8dd386be0767c330276ea6a3f96532d3,5bacbd9f42bd029c3a296501224e193e,8.0,paulo lopes,-27.978665492288254,-48.68271760811336,88490.0,2542.0,POINT (-48.68271760811336 -27.978665492288254),POINT (-41.69734068618584 -17.187384231128462)
carai,5a1470d43d8ad960d4199134d3df48e0,-17.187384231128462,-41.69734068618584,39810,51700,8dd386be0767c330276ea6a3f96532d3,5bacbd9f42bd029c3a296501224e193e,8.0,paulo lopes,-27.978665492288254,-48.68271760811336,88490.0,2542.0,POINT (-48.68271760811336 -27.978665492288254),POINT (-41.69734068618584 -17.187384231128462)
carai,5a1470d43d8ad960d4199134d3df48e0,-17.187384231128462,-41.69734068618584,39810,51700,8dd386be0767c330276ea6a3f96532d3,5bacbd9f42bd029c3a296501224e193e,8.0,paulo lopes,-27.978665492288254,-48.68271760811336,88490.0,2542.0,POINT (-48.68271760811336 -27.978665492288254),POINT (-41.69734068618584 -17.187384231128462)
carai,5a1470d43d8ad960d4199134d3df48e0,-17.187384231128462,-41.69734068618584,39810,51700,8dd386be0767c330276ea6a3f96532d3,5bacbd9f42bd029c3a296501224e193e,8.0,paulo lopes,-27.978665492288254,-48.68271760811336,88490.0,2542.0,POINT (-48.68271760811336 -27.978665492288254),POINT (-41.69734068618584 -17.187384231128462)
carai,5a1470d43d8ad960d4199134d3df48e0,-17.187384231128462,-41.69734068618584,39810,51700,8dd386be0767c330276ea6a3f96532d3,5bacbd9f42bd029c3a296501224e193e,8.0,paulo lopes,-27.978665492288254,-48.68271760811336,88490.0,2542.0,POINT (-48.68271760811336 -27.978665492288254),POINT (-41.69734068618584 -17.187384231128462)
carai,5a1470d43d8ad960d4199134d3df48e0,-17.187384231128462,-41.69734068618584,39810,51700,8dd386be0767c330276ea6a3f96532d3,5bacbd9f42bd029c3a296501224e193e,8.0,paulo lopes,-27.978665492288254,-48.68271760811336,88490.0,2542.0,POINT (-48.68271760811336 -27.978665492288254),POINT (-41.69734068618584 -17.187384231128462)
carai,5a1470d43d8ad960d4199134d3df48e0,-17.187384231128462,-41.69734068618584,39810,51700,8dd386be0767c330276ea6a3f96532d3,5bacbd9f42bd029c3a296501224e193e,8.0,paulo lopes,-27.978665492288254,-48.68271760811336,88490.0,2542.0,POINT (-48.68271760811336 -27.978665492288254),POINT (-41.69734068618584 -17.187384231128462)
carai,5a1470d43d8ad960d4199134d3df48e0,-17.187384231128462,-41.69734068618584,39810,51700,8dd386be0767c330276ea6a3f96532d3,5bacbd9f42bd029c3a296501224e193e,8.0,paulo lopes,-27.978665492288254,-48.68271760811336,88490.0,2542.0,POINT (-48.68271760811336 -27.978665492288254),POINT (-41.69734068618584 -17.187384231128462)
carajas,466aad6120bc9aa6be20d8dc0e9b6e1b,-12.521263887473877,-48.4034936003218,68516,92820,9d5a9018aee56acb367ba9c3f05d1d6a,8fc923d372690f0c1bfe010787d3400e,14.0,aparecida de goiania,-16.766594550236395,-49.33975669572179,74930.0,3053.0,POINT (-49.33975669572179 -16.766594550236395),POINT (-48.4034936003218 -12.521263887473877)
caravelas,0c25c869d50456099b3026f0427afa64,-17.729722910287727,-39.26441534623825,45900,43252,8d79c8a04e42d722a75097ce5cbcf2ef,e414d2bbb8c0c4fe5e9d51888c14c192,11.0,caucaia,-3.767264248472272,-38.65566655949054,61658.0,2455.0,POINT (-38.65566655949054 -3.767264248472272),POINT (-39.26441534623825 -17.729722910287727)
carbonita,927f0faa2744e1cdf9e41f695584615a,-17.535873501189737,-43.016459669774186,39665,94678,a1043bafd471dff536d0c462352beb48,d63ca971879bcbc2bc28cb2b4a8d1c52,6.0,ilicinea,-20.940711526524826,-45.82719542395004,37175.0,2747.0,POINT (-45.82719542395004 -20.940711526524826),POINT (-43.016459669774186 -17.535873501189737)
cardoso moreira,0ccc3b723e0fe398486c25a2de577c42,-21.492958974260734,-41.6167734091309,28180,47320,83e197e95a1bbabc8c75e883ed016c47,6a6d60aba373f10c15519e023de52de1,3.0,mage,-22.651862411735703,-43.06551619664904,25900.0,2886.0,POINT (-43.06551619664904 -22.651862411735703),POINT (-41.6167734091309 -21.492958974260734)
careacu,1bc2f9120a7adf6adbc91fc7a32cc2dc,-21.867689297078307,-45.86868379942762,37582,25985,1b4c3a6f53068f0b6944d2d005c9fc89,d32aae18f0f7dfd247193137870ecf0a,15.0,sao ludgero,-28.329441277121372,-49.17649179464339,88730.0,244.0,POINT (-49.17649179464339 -28.329441277121372),POINT (-45.86868379942762 -21.867689297078307)
carius,07c9872dff5069c277abed8f425e133f,-6.535978013297001,-39.49634380101118,63530,80832,3c487ae8f8d7542beff5788e2e0aea83,13b7cdafde78bebb404d4dc74c04fb82,36.0,gama,-16.02294658397918,-48.05071815778448,72460.0,2663.0,POINT (-48.05071815778448 -16.02294658397918),POINT (-39.49634380101118 -6.535978013297001)
carlos barbosa,011f5f2d716eb919dd944494c0db328b,-29.29797282815263,-51.503050440975656,95185,54425,3bb32fedaa74e4ad20f4ce067733bd31,42c384d95181d3ee567e8639ff74fff9,3.0,porto belo,-27.156918925167133,-48.56761529461856,88210.0,813.0,POINT (-48.56761529461856 -27.156918925167133),POINT (-51.503050440975656 -29.29797282815263)
carlos barbosa,011f5f2d716eb919dd944494c0db328b,-29.29797282815263,-51.503050440975656,95185,54425,3bb32fedaa74e4ad20f4ce067733bd31,42c384d95181d3ee567e8639ff74fff9,3.0,porto belo,-27.156918925167133,-48.56761529461856,88210.0,813.0,POINT (-48.56761529461856 -27.156918925167133),POINT (-51.503050440975656 -29.29797282815263)
carlos barbosa,011f5f2d716eb919dd944494c0db328b,-29.29797282815263,-51.503050440975656,95185,54425,3bb32fedaa74e4ad20f4ce067733bd31,42c384d95181d3ee567e8639ff74fff9,3.0,porto belo,-27.156918925167133,-48.56761529461856,88210.0,813.0,POINT (-48.56761529461856 -27.156918925167133),POINT (-51.503050440975656 -29.29797282815263)
carlos barbosa,011f5f2d716eb919dd944494c0db328b,-29.29797282815263,-51.503050440975656,95185,54425,3bb32fedaa74e4ad20f4ce067733bd31,42c384d95181d3ee567e8639ff74fff9,3.0,porto belo,-27.156918925167133,-48.56761529461856,88210.0,813.0,POINT (-48.56761529461856 -27.156918925167133),POINT (-51.503050440975656 -29.29797282815263)
carlos barbosa,011f5f2d716eb919dd944494c0db328b,-29.29797282815263,-51.503050440975656,95185,54425,3bb32fedaa74e4ad20f4ce067733bd31,42c384d95181d3ee567e8639ff74fff9,3.0,porto belo,-27.156918925167133,-48.56761529461856,88210.0,813.0,POINT (-48.56761529461856 -27.156918925167133),POINT (-51.503050440975656 -29.29797282815263)
carlos barbosa,011f5f2d716eb919dd944494c0db328b,-29.29797282815263,-51.503050440975656,95185,54425,3bb32fedaa74e4ad20f4ce067733bd31,42c384d95181d3ee567e8639ff74fff9,3.0,porto belo,-27.156918925167133,-48.56761529461856,88210.0,813.0,POINT (-48.56761529461856 -27.156918925167133),POINT (-51.503050440975656 -29.29797282815263)
carlos barbosa,011f5f2d716eb919dd944494c0db328b,-29.29797282815263,-51.503050440975656,95185,54425,3bb32fedaa74e4ad20f4ce067733bd31,42c384d95181d3ee567e8639ff74fff9,3.0,porto belo,-27.156918925167133,-48.56761529461856,88210.0,813.0,POINT (-48.56761529461856 -27.156918925167133),POINT (-51.503050440975656 -29.29797282815263)
carlos barbosa,011f5f2d716eb919dd944494c0db328b,-29.29797282815263,-51.503050440975656,95185,54425,3bb32fedaa74e4ad20f4ce067733bd31,42c384d95181d3ee567e8639ff74fff9,3.0,porto belo,-27.156918925167133,-48.56761529461856,88210.0,813.0,POINT (-48.56761529461856 -27.156918925167133),POINT (-51.503050440975656 -29.29797282815263)
carnaubal,10ee255a9c015e0148f2bc3bbb595e6b,-4.164310050016116,-40.93904019400211,62375,69974,0ea22c1cfbdc755f86b9b54b39c16043,ab3564822a24b5d7496a7ca54b0a2f62,21.0,sete lagoas,-19.458191844684535,-44.24378281508432,35700.0,2216.0,POINT (-44.24378281508432 -19.458191844684535),POINT (-40.93904019400211 -4.164310050016116)
carutapera,8415ffb440bf6d25ed036387ddbe6a02,-1.2047595080778803,-46.0210012211556,65295,57988,c3867b4666c7d76867627c2f7fb22e21,ce989095754190db3dfe99fdc63e1124,14.0,guara,-20.432067568936827,-47.82429415688505,14580.0,1303.0,POINT (-47.82429415688505 -20.432067568936827),POINT (-46.0210012211556 -1.2047595080778803)
carvalhopolis,6b7d8deb29906a81465a537f41c7705b,-21.778528814768165,-45.842901183547575,37760,34246,001cca7ae9ae17fb1caed9dfb1094831,3e4c2286500a9d3194bd7d92434c8233,6.0,cariacica,-20.301260880441404,-40.394696907072586,29156.0,1110.0,POINT (-40.394696907072586 -20.301260880441404),POINT (-45.842901183547575 -21.778528814768165)
casa branca,08e744cde3be00633719f04923825035,-21.789578382056813,-47.07154461169442,13700,69670,3d871de0142ce09b7081e2b9d1733cb1,6dbcce18ba1c717a5f29d192415872ea,4.0,campo limpo paulista,-23.211861520675228,-46.76228778069986,13232.0,2346.0,POINT (-46.76228778069986 -23.211861520675228),POINT (-47.07154461169442 -21.789578382056813)
cascalho rico,f9f8a5b57c9a363b0251b3784c795423,-18.59563089297449,-47.88032204803273,38460,74824,0b35c634521043bf4b47e21547b99ab5,e0122dcea3d741a8fd7ab4cd7f770a63,13.0,teixeira soares,-25.371752729521283,-50.46082291146616,84530.0,2233.0,POINT (-50.46082291146616 -25.371752729521283),POINT (-47.88032204803273 -18.59563089297449)
cassilandia,72a76d1faf29e4229fe17d09133654df,-19.113163572813953,-51.74092450092955,79540,51264,4869f7a5dfa277a7dca6462dcf3b52b2,2fae52333f99d7baf56f5aa89faa14a6,24.0,guariba,-21.36347334469748,-48.2295879769369,14840.0,2618.0,POINT (-48.2295879769369 -21.36347334469748),POINT (-51.74092450092955 -19.113163572813953)
castelo,0554357bede8e7adab8e4d3a88652483,-20.605142342946397,-41.205064130819856,29360,54395,c53bcd3be457a342a97e39e5a9f0be22,566c54af4e636ee14ef5e97398919a60,9.0,neopolis,-10.32634385952241,-36.57747292320036,49980.0,1827.0,POINT (-36.57747292320036 -10.32634385952241),POINT (-41.205064130819856 -20.605142342946397)
cataguases,0dc854e2d960e065785a2725be47c82e,-21.38728852074099,-42.69505284843944,36772,15509,a1043bafd471dff536d0c462352beb48,6be21280d401645f55cf3310fbffdd35,4.0,ilicinea,-20.940711526524826,-45.82719542395004,37175.0,2747.0,POINT (-45.82719542395004 -20.940711526524826),POINT (-42.69505284843944 -21.38728852074099)
catas altas,9c2fc7e2f1765c15b18e8c25c08eedf3,-20.075812374524446,-43.4073447129334,35969,48852,3db66a856d18a9cba7c9241fc5221c50,b6b01d3d01c6df1ff950084e0f9ec7f4,11.0,ponte nova,-20.41022536716159,-42.8993095333992,35430.0,206.0,POINT (-42.8993095333992 -20.41022536716159),POINT (-43.4073447129334 -20.075812374524446)
catuipe,3f2372ae0d7c19bf8f2b07bd3bf82d70,-28.25215528181286,-54.01308358623585,98770,30235,15aac934c58d886785ac1b17953ea898,10868fbb44c78f78b3c037e71150b0f3,17.0,muqui,-20.951432735910483,-41.342105694944046,29480.0,3011.0,POINT (-41.342105694944046 -20.951432735910483),POINT (-54.01308358623585 -28.25215528181286)
cedro,ed0deda10666afaa99bf30119f929ae3,-6.604065242395979,-39.06273540998278,63400,2687,1703bc09972dab9782e7a9194943b69f,3ab2e0cca7a7831b28bb1bcff404f6c7,10.0,minas gerais,-21.109665382648636,-45.82946859543376,37165.0,2381.0,POINT (-45.82946859543376 -21.109665382648636),POINT (-39.06273540998278 -6.604065242395979)
central,5ce4fbb6db799ff205fbb1a825eb75f9,-11.13679442747616,-42.10633729236847,44940,3941,83e197e95a1bbabc8c75e883ed016c47,233c8509a65f222cf855765d0784b68f,42.0,mage,-22.651862411735703,-43.06551619664904,25900.0,2886.0,POINT (-43.06551619664904 -22.651862411735703),POINT (-42.10633729236847 -11.13679442747616)
cerejeiras,a2ea4efad2c2da38b23965947c541fb6,-13.192854330518081,-60.82347651477353,76997,8400,004c9cd9d87a3c30c522c48c4fc07416,a780ef8e1707e488f029e009123767f3,11.0,ibitinga,-21.757225105309473,-48.82954113566027,14940.0,339.0,POINT (-48.82954113566027 -21.757225105309473),POINT (-60.82347651477353 -13.192854330518081)
cipo,5d0ce5948d35340bb6edf34595d1f2d3,-11.100507705949692,-38.51567136504663,48450,59821,a1043bafd471dff536d0c462352beb48,9fe33416283b9bfb49fcdea66c415777,24.0,ilicinea,-20.940711526524826,-45.82719542395004,37175.0,2747.0,POINT (-45.82719542395004 -20.940711526524826),POINT (-38.51567136504663 -11.100507705949692)
claraval,5f0fdca1383e271d2ba9daae64f119e2,-20.402210771424148,-47.28558949096743,37997,65560,128f9bfbe4c7d5185033914b1de3d39a,8f9b2d4a6cd80dc716a380365561a133,6.0,atibaia,-23.116947409682094,-46.55857256638808,12940.0,2846.0,POINT (-46.55857256638808 -23.116947409682094),POINT (-47.28558949096743 -20.402210771424148)
claro dos pocoes,5647b25ad25cdcfc8b3a9262887a7b4a,-17.052520290388994,-44.20908628691129,39380,84444,a1043bafd471dff536d0c462352beb48,23233c7048bb0dcf2c4f0554a258fd82,6.0,ilicinea,-20.940711526524826,-45.82719542395004,37175.0,2747.0,POINT (-45.82719542395004 -20.940711526524826),POINT (-44.20908628691129 -17.052520290388994)
cocais,1b5ad11367e387a0da032a2d27b62cd5,-19.85988959923245,-43.4505340933806,35975,15464,3d871de0142ce09b7081e2b9d1733cb1,628e083cb05929c84163ae8b63c4c018,14.0,campo limpo paulista,-23.211861520675228,-46.76228778069986,13232.0,2346.0,POINT (-46.76228778069986 -23.211861520675228),POINT (-43.4505340933806 -19.85988959923245)
coite do noia,fd006a53412328405bda07eb5f6be031,-9.636905726170337,-36.579648529187374,57325,62097,8cc6a0e5738e61a87b03c78b2ba9db4b,4eb2ac97a426c7f771f8bb1ef6ba5771,10.0,andradas,-22.070559830857196,-46.573545435867445,37795.0,1826.0,POINT (-46.573545435867445 -22.070559830857196),POINT (-36.579648529187374 -9.636905726170337)
colniza,370b23162b4b1ad3368af5d91a9ec443,-9.45324970746229,-59.236072858098034,78335,1723,12b9676b00f60f3b700e83af21824c0e,4f78cf9df18b4661ea0096c43db9f402,15.0,montenegro,-29.688238317970825,-51.4687297294334,95780.0,1025.0,POINT (-51.4687297294334 -29.688238317970825),POINT (-59.236072858098034 -9.45324970746229)
conde,31ba3483559016b09049d2a84f6eef2c,-11.816688190640768,-37.61817879401775,48300,12153,7299e27ed73d2ad986de7f7c77d919fa,1def5208ea4cb393260ab333be753296,39.0,araguari,-18.64630933305261,-48.195184868636545,38440.0,74.0,POINT (-48.195184868636545 -18.64630933305261),POINT (-37.61817879401775 -11.816688190640768)
conquista d'oeste,35dbaf9c728f87f4d2f717370aa3eb43,-14.554974102416653,-59.52865023752151,78254,76274,a1043bafd471dff536d0c462352beb48,b9189dcba2f5219bc348356dce47d124,28.0,ilicinea,-20.940711526524826,-45.82719542395004,37175.0,2747.0,POINT (-45.82719542395004 -20.940711526524826),POINT (-59.52865023752151 -14.554974102416653)
conselheiro mairinck,8a1218a76be2cca9f86e2a9618f61af4,-23.623814650764025,-50.169558178646284,86480,62992,4da0e408c99d2fdc2126dc9fce518060,eea0eb694d4eb8ffa2ed9279f4c348e5,5.0,cornelio procopio,-23.18132628428975,-50.64933554119287,86300.0,2554.0,POINT (-50.64933554119287 -23.18132628428975),POINT (-50.169558178646284 -23.623814650764025)
coqueiros do sul,7d7f08e05db9522cd32a297786532d45,-28.118553226627522,-52.78245270110114,99528,62106,1caf283236cd69af44cbc09a0a1e7d32,d217a2d8cec27a4d5ab7600ecb95826b,7.0,nova iguacu,-22.750361916422435,-43.4485635283222,26020.0,765.0,POINT (-43.4485635283222 -22.750361916422435),POINT (-52.78245270110114 -28.118553226627522)
coronel domingos soares,2d2831c77d9e86f8b8534ecf24cb2ed7,-26.224443703744928,-52.03014345171145,85557,42667,3d871de0142ce09b7081e2b9d1733cb1,b6206a76c2773130f565806250be79a2,25.0,campo limpo paulista,-23.211861520675228,-46.76228778069986,13232.0,2346.0,POINT (-46.76228778069986 -23.211861520675228),POINT (-52.03014345171145 -26.224443703744928)
coronel macedo,7e25c3cc2fb867d3fef223c50fddc713,-23.6306670890583,-49.312936316821386,18745,72010,4e17c65a516f69d023a2ae78b84f28d6,123eb6c42fb774382bf82e6a332af592,6.0,suzano,-23.559685174793447,-46.30639288160239,8673.0,1012.0,POINT (-46.30639288160239 -23.559685174793447),POINT (-49.312936316821386 -23.6306670890583)
corrente,105517ff3d84727c408c34e9b07afb93,-10.433578062871431,-45.16433455226117,64980,61467,0307f7565ff85b299b6e5ef162b1b1a9,fb9489db9eb0031c0f793fb3af5887c2,11.0,sao jose do rio preto,-20.812644653930246,-49.36882210624972,15085.0,930.0,POINT (-49.36882210624972 -20.812644653930246),POINT (-45.16433455226117 -10.433578062871431)
costa marques,7ac99a97fd540a8add7900eec14ecc2b,-12.38106212920627,-64.21397956666598,76937,15734,04308b1ee57b6625f47df1d56f00eedf,e4992b3b826ff19edba39e9a4d9dae26,14.0,bombinhas,-27.15729033482312,-48.50553197897088,88215.0,2192.0,POINT (-48.50553197897088 -27.15729033482312),POINT (-64.21397956666598 -12.38106212920627)
crateus,0adb885db398cb59b0bf5f19f8766205,-5.1786803560323245,-40.667794237052355,63700,17842,9a84ba99f5367fdbd4598363496f1ea2,3923f314508399815f3a29541ae99a2f,9.0,luziania,-16.26267441603644,-47.95697355049739,72801.0,1368.0,POINT (-47.95697355049739 -16.26267441603644),POINT (-40.667794237052355 -5.1786803560323245)
crato,11210f93e29a4e9a61244d1e72da8d64,-7.235414834030862,-39.409912181366174,63132,75835,6a8b085f816a1f75f92dbac6eb545f8f,80e1772e4e695fb8c74ccec030acdaa5,9.0,bebedouro,-20.924744757420648,-48.490740298476474,14709.0,1556.0,POINT (-48.490740298476474 -20.924744757420648),POINT (-39.409912181366174 -7.235414834030862)
cravolandia,b43b66d0bf62b519a78dec638270e225,-13.358401910184204,-39.81379177931384,45330,54376,440dd6ab244315c632130ecfb63827b1,533e69dda70ac7671a0bda8bb5fc08db,8.0,votuporanga,-20.41919419963036,-49.97701493190249,15502.0,1772.0,POINT (-49.97701493190249 -20.41919419963036),POINT (-39.81379177931384 -13.358401910184204)
crisolita,5d1ff54c05c7c5044718b88a49c704b8,-17.25475946795466,-40.98250132268879,39885,338,1336efc61c316ddf92c899eb817f7cae,4ef8f514f95bb0a41f58965ea04e7027,9.0,assis,-22.662254161741405,-50.42148793172754,19800.0,1893.0,POINT (-50.42148793172754 -22.662254161741405),POINT (-40.98250132268879 -17.25475946795466)
crisopolis,72cb865e318f4077360bcfb50098f7eb,-11.510070619375213,-38.15165773141932,48480,9686,0ea22c1cfbdc755f86b9b54b39c16043,b07725548a706259d0cbc2aeaa780e18,18.0,sete lagoas,-19.458191844684535,-44.24378281508432,35700.0,2216.0,POINT (-44.24378281508432 -19.458191844684535),POINT (-38.15165773141932 -11.510070619375213)
cristinapolis,26200259c9bba6e2708558f225ce4ed6,-11.476632358828466,-37.75550801771327,49270,29164,5733d806668f8712c24b9abaefbfa642,80e2b63fdff0ad53daef256e9b0f2c8e,18.0,chapeco,-27.103007698274084,-52.61418338973049,89803.0,1553.0,POINT (-52.61418338973049 -27.103007698274084),POINT (-37.75550801771327 -11.476632358828466)
crominia,7aa5c798faaf42173981b921aaaacae3,-17.28903223581148,-49.37533402471243,75635,81305,0c7533c71df861ec58ad7ff999ed0e8d,664aece086c0b955e71ee4f88965a565,7.0,valinhos,-22.96117268117758,-46.997215621315675,13270.0,53.0,POINT (-46.997215621315675 -22.96117268117758),POINT (-49.37533402471243 -17.28903223581148)
cruzeiro da fortaleza,3fb83e207757e8f15ff70d937c86929b,-18.9482951036627,-46.672828113171775,38735,27006,0ea22c1cfbdc755f86b9b54b39c16043,9058bc799c3791077efb3aaa8e0d5e02,5.0,sete lagoas,-19.458191844684535,-44.24378281508432,35700.0,2216.0,POINT (-44.24378281508432 -19.458191844684535),POINT (-46.672828113171775 -18.9482951036627)
cuiaba,00459c4eb23e40414ca067d06fa303d4,-15.597777897531143,-56.073501532493246,78008,49891,06a2c3af7b3aee5d69171b0e14f0ee87,2536adb313f6bc4854a1cc21a2ecde8f,22.0,sao luis,-2.503157606634558,-44.24938912079653,65072.0,1931.0,POINT (-44.24938912079653 -2.503157606634558),POINT (-56.073501532493246 -15.597777897531143)
cumari,3aacb368d6b1db2b137d99daf9b3a05a,-18.26475442537532,-48.149793546319394,75760,53835,729b2d09b2a0bdab221076327f13d050,97a475450ceb764b03982eeb9bfc10a8,10.0,mineiros do tiete,-22.413558559591177,-48.45127221284603,17320.0,1829.0,POINT (-48.45127221284603 -22.413558559591177),POINT (-48.149793546319394 -18.26475442537532)
cunha pora,05ae07724e12ebb587685c8acdb8260c,-26.891789834035556,-53.17175011562608,89890,56963,99002261c568a84cce14d43fcffb43ea,087b9476284aab4d762f05d8c0181aab,8.0,cuiaba,-15.631239539867986,-56.07672038360924,78095.0,128.0,POINT (-56.07672038360924 -15.631239539867986),POINT (-53.17175011562608 -26.891789834035556)
curral de cima,c437d2ce8145895f0e3bb3cff1d49833,-6.718979212776461,-35.26602567205188,58291,96709,4869f7a5dfa277a7dca6462dcf3b52b2,a5283d6db4848796b9bea944339d2dca,14.0,guariba,-21.36347334469748,-48.2295879769369,14840.0,2618.0,POINT (-48.2295879769369 -21.36347334469748),POINT (-35.26602567205188 -6.718979212776461)
cururupu,07073537c7394038818895e9cca2ab06,-1.8277169850103405,-44.870550609129545,65268,92190,3d871de0142ce09b7081e2b9d1733cb1,b6df8ec45b7a0b36bae45fcac237f298,21.0,campo limpo paulista,-23.211861520675228,-46.76228778069986,13232.0,2346.0,POINT (-46.76228778069986 -23.211861520675228),POINT (-44.870550609129545 -1.8277169850103405)
custodia,3739f75c5836f6b41beb45a988b32888,-8.089387839941432,-37.644476630260755,56640,20586,e49c26c3edfa46d227d5121a6b6e4d37,f2d87ed38676765184a73e871a9e3ece,5.0,brejao,-9.024839005157318,-36.57020044972058,55325.0,7.0,POINT (-36.57020044972058 -9.024839005157318),POINT (-37.644476630260755 -8.089387839941432)
denise,cf514939041cb2b8724a3e685e2bb43b,-14.728493804630778,-57.049455317874916,78380,46731,20a8b0dc55da94fe74d112082427c84f,4ea3c6eaf3dc15ad857675322bfb6bd0,8.0,itu,-23.26822726749242,-47.310922284270916,13312.0,664.0,POINT (-47.310922284270916 -23.26822726749242),POINT (-57.049455317874916 -14.728493804630778)
descalvado,01271eb2284947f2e2abbe53fa15730a,-21.90875340512431,-47.619857893579606,13690,70438,17e34d8224d27a541263c4c64b11a56b,bebfce59cea8500ade1ddffe679b422c,8.0,riberao preto,-21.16604702730375,-47.797948703989675,14085.0,3027.0,POINT (-47.797948703989675 -21.16604702730375),POINT (-47.619857893579606 -21.90875340512431)
descoberto,ba398201ea0b47e63eee02504c0f81f6,-21.460287627286068,-42.96379799733871,36690,98431,954e95f20808d7e5d11f0de292d078e0,98b64215b7d4b779e003927cd0b7e225,6.0,joao monlevade,-19.814760032238127,-43.17010005633215,35930.0,1369.0,POINT (-43.17010005633215 -19.814760032238127),POINT (-42.96379799733871 -21.460287627286068)
desterro,43ee577ee14b2c4137d7a3d2945947a9,-7.289328572200058,-37.08906656945403,58695,11242,712e6ed8aa4aa1fa65dab41fed5737e4,218078d00b6b6ad56df0e38236ed62a7,24.0,videira,-27.004522453378566,-51.152808530844105,89560.0,2227.0,POINT (-51.152808530844105 -27.004522453378566),POINT (-37.08906656945403 -7.289328572200058)
desterro do melo,ff03224d29a8394ce66dcd434f7bf8d3,-21.148926512528384,-43.51364099878391,36210,25207,0ea22c1cfbdc755f86b9b54b39c16043,adf99ffa5e0b3a09795387b766316853,6.0,sete lagoas,-19.458191844684535,-44.24378281508432,35700.0,2216.0,POINT (-44.24378281508432 -19.458191844684535),POINT (-43.51364099878391 -21.148926512528384)
diamante do norte,1ab643f32a4d584b7a56a9de6779228c,-22.65933104237836,-52.863673240809646,87990,39850,1f9ab4708f3056ede07124aad39a2554,e28239311822ec827e9fbadde0649f3b,5.0,tupa,-21.93584016874602,-50.51329887609122,17602.0,36.0,POINT (-50.51329887609122 -21.93584016874602),POINT (-52.863673240809646 -22.65933104237836)
dianopolis,490759be2844c3b899a2fb95e6146bd8,-11.628339466646453,-46.82150359445086,77300,74914,001cca7ae9ae17fb1caed9dfb1094831,9b9e08cb1a66ae45d2a91815cd8f4426,21.0,cariacica,-20.301260880441404,-40.394696907072586,29156.0,1110.0,POINT (-40.394696907072586 -20.301260880441404),POINT (-46.82150359445086 -11.628339466646453)
dianopolis,490759be2844c3b899a2fb95e6146bd8,-11.628339466646453,-46.82150359445086,77300,74914,001cca7ae9ae17fb1caed9dfb1094831,9b9e08cb1a66ae45d2a91815cd8f4426,21.0,cariacica,-20.301260880441404,-40.394696907072586,29156.0,1110.0,POINT (-40.394696907072586 -20.301260880441404),POINT (-46.82150359445086 -11.628339466646453)
dianopolis,490759be2844c3b899a2fb95e6146bd8,-11.628339466646453,-46.82150359445086,77300,74914,001cca7ae9ae17fb1caed9dfb1094831,9b9e08cb1a66ae45d2a91815cd8f4426,21.0,cariacica,-20.301260880441404,-40.394696907072586,29156.0,1110.0,POINT (-40.394696907072586 -20.301260880441404),POINT (-46.82150359445086 -11.628339466646453)
dianopolis,490759be2844c3b899a2fb95e6146bd8,-11.628339466646453,-46.82150359445086,77300,74914,001cca7ae9ae17fb1caed9dfb1094831,9b9e08cb1a66ae45d2a91815cd8f4426,21.0,cariacica,-20.301260880441404,-40.394696907072586,29156.0,1110.0,POINT (-40.394696907072586 -20.301260880441404),POINT (-46.82150359445086 -11.628339466646453)
dianopolis,490759be2844c3b899a2fb95e6146bd8,-11.628339466646453,-46.82150359445086,77300,74914,001cca7ae9ae17fb1caed9dfb1094831,9b9e08cb1a66ae45d2a91815cd8f4426,21.0,cariacica,-20.301260880441404,-40.394696907072586,29156.0,1110.0,POINT (-40.394696907072586 -20.301260880441404),POINT (-46.82150359445086 -11.628339466646453)
dianopolis,490759be2844c3b899a2fb95e6146bd8,-11.628339466646453,-46.82150359445086,77300,74914,001cca7ae9ae17fb1caed9dfb1094831,9b9e08cb1a66ae45d2a91815cd8f4426,21.0,cariacica,-20.301260880441404,-40.394696907072586,29156.0,1110.0,POINT (-40.394696907072586 -20.301260880441404),POINT (-46.82150359445086 -11.628339466646453)
dianopolis,490759be2844c3b899a2fb95e6146bd8,-11.628339466646453,-46.82150359445086,77300,74914,001cca7ae9ae17fb1caed9dfb1094831,9b9e08cb1a66ae45d2a91815cd8f4426,21.0,cariacica,-20.301260880441404,-40.394696907072586,29156.0,1110.0,POINT (-40.394696907072586 -20.301260880441404),POINT (-46.82150359445086 -11.628339466646453)
dianopolis,490759be2844c3b899a2fb95e6146bd8,-11.628339466646453,-46.82150359445086,77300,74914,001cca7ae9ae17fb1caed9dfb1094831,9b9e08cb1a66ae45d2a91815cd8f4426,21.0,cariacica,-20.301260880441404,-40.394696907072586,29156.0,1110.0,POINT (-40.394696907072586 -20.301260880441404),POINT (-46.82150359445086 -11.628339466646453)
dias d'avila,076dcea2eb6c8dbe9354f7c0d8670a00,-12.613335402339558,-38.30095545324636,42850,95020,1f9ab4708f3056ede07124aad39a2554,02aec12849744e266394182861265286,8.0,tupa,-21.93584016874602,-50.51329887609122,17602.0,36.0,POINT (-50.51329887609122 -21.93584016874602),POINT (-38.30095545324636 -12.613335402339558)
diorama,4d53dc075b6e8ec9618f3d8a80b14942,-16.23446846169556,-51.257943717326235,76260,36445,701938c450705b8ae65fc923b70f35c7,2ec97dfd085ac4fe7b1fa12819d9a36c,9.0,s jose do rio preto,-20.81932882254668,-49.37741346526811,15014.0,980.0,POINT (-49.37741346526811 -20.81932882254668),POINT (-51.257943717326235 -16.23446846169556)
divino de sao lourenco,eddeddf27e3ccc96b1e3f7fcfd4e4f3d,-20.617912353901264,-41.68835153581051,29590,67336,701938c450705b8ae65fc923b70f35c7,1eb51a538c51ad5612a8be5cf27d6b5d,12.0,s jose do rio preto,-20.81932882254668,-49.37741346526811,15014.0,980.0,POINT (-49.37741346526811 -20.81932882254668),POINT (-41.68835153581051 -20.617912353901264)
dois corregos,0ec177ccd4e189f07a265e98ee1abe0f,-22.367915204565957,-48.38643158098792,17300,60917,e333046ce6517bd8bb510291d44f0130,ae579b8fbd291ba511e1f6fa5109d2f0,2.0,ipaussu,-23.055168941127352,-49.62701112282013,18950.0,2879.0,POINT (-49.62701112282013 -23.055168941127352),POINT (-48.38643158098792 -22.367915204565957)
dois riachos,e6595e1dfae04149e21586a32e6d8b9f,-9.387081056889096,-37.08918597630651,57560,25849,01fdefa7697d26ad920e9e0346d4bd1b,42de1b3e5c22770a440ee04f373fb846,30.0,londrina,-23.318378591672754,-51.16255151516641,86050.0,1194.0,POINT (-51.16255151516641 -23.318378591672754),POINT (-37.08918597630651 -9.387081056889096)
dom cavati,96486d08a86576c33c64790ee3c8ce4a,-19.378116021062066,-42.10883358852514,35148,87481,557f22c76691849db52d2abccf0015d0,b74fc8a1ce10dc00688327cdc6a992e8,7.0,morrinhos,-17.733108195856715,-49.11374034658263,75650.0,1850.0,POINT (-49.11374034658263 -17.733108195856715),POINT (-42.10883358852514 -19.378116021062066)
dom eliseu,2a7538a3a9b5de992de6fda7e4338624,-4.288843018315868,-47.5626268266854,68633,70187,1f9ab4708f3056ede07124aad39a2554,a1ad04708ac63bf780235612020e647e,19.0,tupa,-21.93584016874602,-50.51329887609122,17602.0,36.0,POINT (-50.51329887609122 -21.93584016874602),POINT (-47.5626268266854 -4.288843018315868)
dom pedro,3d8fdd99e18dff4cc13218d33846b2d9,-5.036805707517341,-44.43793200223785,65765,76177,06a2c3af7b3aee5d69171b0e14f0ee87,31f280f556b8d9944ab746adcfcc7d83,7.0,sao luis,-2.503157606634558,-44.24938912079653,65072.0,1931.0,POINT (-44.24938912079653 -2.503157606634558),POINT (-44.43793200223785 -5.036805707517341)
dom pedro,3d8fdd99e18dff4cc13218d33846b2d9,-5.036805707517341,-44.43793200223785,65765,76177,06a2c3af7b3aee5d69171b0e14f0ee87,31f280f556b8d9944ab746adcfcc7d83,7.0,sao luis,-2.503157606634558,-44.24938912079653,65072.0,1931.0,POINT (-44.24938912079653 -2.503157606634558),POINT (-44.43793200223785 -5.036805707517341)
dom pedro,3d8fdd99e18dff4cc13218d33846b2d9,-5.036805707517341,-44.43793200223785,65765,76177,06a2c3af7b3aee5d69171b0e14f0ee87,31f280f556b8d9944ab746adcfcc7d83,7.0,sao luis,-2.503157606634558,-44.24938912079653,65072.0,1931.0,POINT (-44.24938912079653 -2.503157606634558),POINT (-44.43793200223785 -5.036805707517341)
dom pedro,3d8fdd99e18dff4cc13218d33846b2d9,-5.036805707517341,-44.43793200223785,65765,76177,06a2c3af7b3aee5d69171b0e14f0ee87,31f280f556b8d9944ab746adcfcc7d83,7.0,sao luis,-2.503157606634558,-44.24938912079653,65072.0,1931.0,POINT (-44.24938912079653 -2.503157606634558),POINT (-44.43793200223785 -5.036805707517341)
dom pedro,3d8fdd99e18dff4cc13218d33846b2d9,-5.036805707517341,-44.43793200223785,65765,76177,06a2c3af7b3aee5d69171b0e14f0ee87,31f280f556b8d9944ab746adcfcc7d83,7.0,sao luis,-2.503157606634558,-44.24938912079653,65072.0,1931.0,POINT (-44.24938912079653 -2.503157606634558),POINT (-44.43793200223785 -5.036805707517341)
dom pedro,3d8fdd99e18dff4cc13218d33846b2d9,-5.036805707517341,-44.43793200223785,65765,76177,06a2c3af7b3aee5d69171b0e14f0ee87,31f280f556b8d9944ab746adcfcc7d83,7.0,sao luis,-2.503157606634558,-44.24938912079653,65072.0,1931.0,POINT (-44.24938912079653 -2.503157606634558),POINT (-44.43793200223785 -5.036805707517341)
dom pedro,3d8fdd99e18dff4cc13218d33846b2d9,-5.036805707517341,-44.43793200223785,65765,76177,06a2c3af7b3aee5d69171b0e14f0ee87,31f280f556b8d9944ab746adcfcc7d83,7.0,sao luis,-2.503157606634558,-44.24938912079653,65072.0,1931.0,POINT (-44.24938912079653 -2.503157606634558),POINT (-44.43793200223785 -5.036805707517341)
dom pedro,3d8fdd99e18dff4cc13218d33846b2d9,-5.036805707517341,-44.43793200223785,65765,76177,06a2c3af7b3aee5d69171b0e14f0ee87,31f280f556b8d9944ab746adcfcc7d83,7.0,sao luis,-2.503157606634558,-44.24938912079653,65072.0,1931.0,POINT (-44.24938912079653 -2.503157606634558),POINT (-44.43793200223785 -5.036805707517341)
dom silverio,01a1579cd07b292799675eeef1e9561c,-20.16340463187172,-42.968187369983085,35440,98715,8444e55c1f13cd5c179851e5ca5ebd00,f3f48b527972908a9a5c7f5593eea307,11.0,congonhal,-21.83936279474967,-45.61496356662735,37584.0,47.0,POINT (-45.61496356662735 -21.83936279474967),POINT (-42.968187369983085 -20.16340463187172)
domingos martins,0d801865cd313be33b1ffdfac6b41936,-20.36202443550713,-40.68169578734027,29260,52768,3d871de0142ce09b7081e2b9d1733cb1,f83bde2f77db7c7343f2bd54bb17fda3,13.0,campo limpo paulista,-23.211861520675228,-46.76228778069986,13232.0,2346.0,POINT (-46.76228778069986 -23.211861520675228),POINT (-40.68169578734027 -20.36202443550713)
dona francisca,0a8590845fd49614cc44c39969900ac0,-29.623614166223486,-53.35582431678566,97280,76301,17a053fcb14bd219540cbde0df490be0,f80f1384081e853ae3bb03c6a87a4bbb,11.0,mogi guacu,-22.364708033922323,-46.94064322343448,13843.0,1648.0,POINT (-46.94064322343448 -22.364708033922323),POINT (-53.35582431678566 -29.623614166223486)
doutor camargo,ba2670f501b017aef92d953a58982d10,-23.554710585490156,-52.21842075679833,87155,33632,17e34d8224d27a541263c4c64b11a56b,9c03496a411754169e1433dc70a583f0,7.0,riberao preto,-21.16604702730375,-47.797948703989675,14085.0,3027.0,POINT (-47.797948703989675 -21.16604702730375),POINT (-52.21842075679833 -23.554710585490156)
eliseu martins,448f1034e6bf87ad818490b3d1708360,-8.098212324075302,-43.66102654712263,64880,64328,06a2c3af7b3aee5d69171b0e14f0ee87,f0fb77580603e4f955c60d3fe023553f,4.0,sao luis,-2.503157606634558,-44.24938912079653,65072.0,1931.0,POINT (-44.24938912079653 -2.503157606634558),POINT (-43.66102654712263 -8.098212324075302)
elisio medrado,cc40bbf28a3ef4239801ae5e8a22227a,-12.945754382865934,-39.52141988424625,45305,68489,17e34d8224d27a541263c4c64b11a56b,c2de24c1d731498ba30b74272b611312,6.0,riberao preto,-21.16604702730375,-47.797948703989675,14085.0,3027.0,POINT (-47.797948703989675 -21.16604702730375),POINT (-39.52141988424625 -12.945754382865934)
encantado,152dbb1b41350e9b107e483e9ec546c0,-29.234130774081315,-51.87726772984192,95960,7347,9e6229250fedbe05838fef417b74e7fb,434e81e3dd3038e858046831f20c479a,11.0,mirandopolis,-21.131922273479898,-51.10300715867033,16800.0,193.0,POINT (-51.10300715867033 -21.131922273479898),POINT (-51.87726772984192 -29.234130774081315)
erere,782776350a20f5b2f257784336e42b41,-6.031735490122187,-38.34898110650219,63470,66618,4869f7a5dfa277a7dca6462dcf3b52b2,d0b9b4ddffcd1fe48c13d9fec485302d,8.0,guariba,-21.36347334469748,-48.2295879769369,14840.0,2618.0,POINT (-48.2295879769369 -21.36347334469748),POINT (-38.34898110650219 -6.031735490122187)
ervalia,33a3ae8c96bb00d0dcbef6fc2fde83bb,-20.84043623612542,-42.65535202352822,36555,30712,4869f7a5dfa277a7dca6462dcf3b52b2,2036e90fc219932b90e4da6211a01758,11.0,guariba,-21.36347334469748,-48.2295879769369,14840.0,2618.0,POINT (-48.2295879769369 -21.36347334469748),POINT (-42.65535202352822 -20.84043623612542)
esperantinopolis,0142bd3182ef8b08ecc4182dfd4ef811,-4.879377629589499,-44.88502371137947,65750,63716,4221a7df464f1fe2955934e30ff3a5a1,6aedb9d0c7138abf29b31866635b4c69,21.0,bahia,-9.404680475723417,-38.22215819492996,48602.0,406.0,POINT (-38.22215819492996 -9.404680475723417),POINT (-44.88502371137947 -4.879377629589499)
